Operation Name,Address,State,Milk,Fruit,Soy,Tapioca,lat,long
119 Degrees West Farm,329 Road 11 SE,Washington,0,1,0,0,46.92773102159608,-119.48758442525433
123 Farm,10600 Highland Springs Avenue,California,0,1,0,0,33.9218314,-116.9467354
1700 Stiles Rd Farm,1700 Stiles Road,New York,1,0,0,0,42.6648455,-77.0203123761457
"1St Maine Farm, Hemp & Craft",58 Williams Pond Rd.,Maine,0,1,0,0,44.6466789,-68.7714828
2 Creeks Farm,19986 Maland Dr.,Minnesota,1,0,0,0,43.85426,-91.880024
207 Redwood LLC Dba Purisima Ridge,5579 Old San Jose Rd.,California,0,1,0,0,37.05667212611973,-121.9418312462901
"208 Investments, LLC",La Buena Vida Lane,Nevada,0,1,0,0,32.29407465,-106.73778786704726
3 Brockman Farms,39477 Avenue 12,California,0,1,0,0,36.92316637039373,-119.83122761019919
3 Bug Farm,11 Wiley Neck Rd.,Maine,0,1,0,0,44.2703866,-69.1338444
"340 Calle Lippizana, LLC",340 Calle Lippizana,California,0,1,0,0,34.47280780962927,-120.00422835649789
3Z Farms LLC,8444 Rd 29,California,0,1,0,0,36.87301513063515,-120.01952428604379
4 K&S Dairy,3247 Hwy 18,Wisconsin,1,0,0,0,42.85577705,-87.87292664095071
40 Acre Farm,28214 S. 120 Ave.,Illinois,0,1,0,0,40.806371,-90.769114
4Earth Farms,5555 E. Olympic Boulevard,California,0,1,0,0,34.0304716,-118.2423199
5 Star Nursery And Orchard,853 Bay Rd,Maine,0,1,0,0,44.3127369,-68.570436
5 TOOL FARMS LLC,31397 Killam Road,Illinois,0,0,1,0,39.455653414978855,-89.87843920296969
77 West Farm LLC Dba 77 West Farm,19850 Templeton Rd.,Virginia,0,1,0,0,37.03811545000001,-77.34524560422031
7Th Heaven,2660 Picachio Rd,California,0,1,0,0,35.5007488,-120.940023059169
A & A Farm,2639 Campbell Rd,Michigan,0,0,1,0,43.2781411686747,-82.9375373373494
"A & A Organic Farms, Corp",125 Hanger Way #100,California,0,1,0,0,35.4308452,-119.0435805
A & C Farms,3329 Wisconsin Ave,California,0,1,0,0,33.77097958291457,-118.16177159296483
"A & H Organic Farm, Inc.",Hugh Davis Rd,North Carolina,0,0,1,0,36.329178,-78.059199
A & K Kasik Organic Farms LLC,2390 Road 41,Nebraska,0,0,1,0,40.350542,-97.633034
A & L Organic,39640 290th St,Missouri,0,0,1,0,40.30003088208319,-94.6379600799218
A & L Organics,696 Main St.,Maine,0,1,0,0,44.7625445,-69.4014208
"A & W Farm Operations, Inc",16110 NE 68th St,Iowa,0,0,1,0,41.849532850419806,-93.47345765406186
A . Gurda Produce Inc.,35 Davandjer Lane,New York,0,1,0,0,41.29599463187363,-74.49143206774872
A D Farming,3360 Buckwheat Rd,Pennsylvania,0,0,1,0,41.722203,-76.793761
A Farm Market Organic Farm,7525 Goeke Rd,Illinois,0,0,1,0,42.30728,-89.3975682
A Natural Farm,23630 SR 19,Florida,0,1,0,0,26.887530050000002,-80.1174691487582
A To Z Wineworks And Rex Hill Winery,30835 North Highway 99,Oregon,0,1,0,0,45.5051557,-122.61084982644105
A&F Farms,20646 45th St,Iowa,0,0,1,0,41.12543052441444,-91.32682316199745
A&J Ag. Inc.,391 Rd. 148,California,0,1,0,0,35.79488518051392,-119.24144645565293
"A&M Farms, Inc.",749 Collins Road,Georgia,0,1,0,0,33.247706082250694,-82.04510195003486
A&W Dairy,1594 130th Street,Iowa,1,0,1,0,42.16712853597647,-95.09038230537747
A. Bhatti Farming Company,1500 Reed Rd.,California,0,1,0,0,39.083427889803076,-121.63887376499513
A. Cozzolino Nursery,105 Digges Canyon Road,California,0,1,0,0,37.49939414795832,-122.41776169751803
A. Freddie White,4269 Zoar R,Georgia,0,1,0,0,33.80568816953187,-84.05401716833181
"A.G. Cropping Services, LLC",6541 Turtle Road,Wisconsin,1,0,1,0,46.12865,-90.174691
A.J. Trucco,2440 North Mill Road,New Jersey,0,1,0,0,39.52347886431078,-75.05881708373582
A.W. Johnson & Sons,22703 Picador Dr.,California,0,1,0,0,36.604983,-121.698319
AAK USA Richmond Corp.,1145 Harbour Way South,California,0,0,1,0,37.91738531992018,-122.36019471872369
Aaron Beiler,10013 S. 800 W,Indiana,1,0,0,0,40.40225927354665,-85.82422414140504
Aaron D. Mast,4162 Augusta Rd,New York,1,1,0,0,42.92117915541227,-75.50839517429438
Aaron E. Mast,3528 T.R. 606,Ohio,1,0,0,0,40.920381417439046,-83.92850394861054
Aaron G. Fisher,72 Cerrato Lane,Pennsylvania,1,0,0,0,41.0376163738257,-77.2069562628042
"Aaron K. Fisher, Jr.",492 Marshville Road,New York,1,0,0,0,42.880604274823085,-74.63677162131508
Aaron Kempf,8120 State Route 534,Ohio,0,0,1,0,41.43751349,-80.95513542
Aaron Klinski,9379 Sanden Road,Minnesota,0,0,1,0,43.713749037163176,-91.45945875606317
Aaron L. Lantz,3038 Old Philadelphia Pike,Pennsylvania,1,0,0,0,40.038638275851014,-76.1528240010607
Aaron Lapp,13260 Hwy 126,Wisconsin,1,0,0,0,42.6304955,-88.1147082
Aaron Lapp,17016 County Road G,Wisconsin,1,0,0,0,43.58484,-87.848744
Aaron Lapp,68 Morrison Mill Road,Pennsylvania,1,0,0,0,39.85957010759765,-76.04813240161121
Aaron M. Martin,1748 Pre-Emption Road,New York,1,0,0,0,42.679479,-77.02910324875623
Aaron Mast,44310 151st Avenue,Minnesota,1,0,0,0,45.5480656,-94.4219738
Aaron Miller,7136 S. Clare Ave,Michigan,1,0,0,0,43.87569482432544,-84.76814348914395
Aaron Stoltzfoos,380 Pine Grove Road,Pennsylvania,1,0,0,0,40.694533224744475,-80.4164818497734
Aaron Stoltzfus,90 Eagle Road,Pennsylvania,0,1,0,0,40.15194876823801,-75.49571054280281
Aaron Stutzman,6531 East Surrey Rd,Michigan,0,0,1,0,43.85861766933868,-84.71652031462926
"Aaron Thomas Company, Inc.",7421 Chapman Ave,California,1,0,0,0,33.7882158,-117.8845211
Aaron Vercler Dba Pleasantland Organic Farm,1985 Eureka Road,Illinois,0,0,1,0,40.70433614285714,-89.36325128571428
Aaron Yoder Farm,W354 26 Rd,Wisconsin,1,0,1,0,42.6811696,-90.1214306
"Aaron, Leonard C.",750 Berry Rd,Virginia,0,0,1,0,36.83668654972541,-79.55587884098189
Abbey Ranch,26240 7th St.,California,0,1,0,0,34.032454,-118.5082856
"Abbott Nutrition, A Div Of Abbott Laboratories",901 N Centerville Road,Michigan,1,0,0,0,41.838244,-85.428736
Abe E Miller,812 Gardnersville Rd,New York,0,1,0,0,42.737457366618884,-74.53845035997229
Abe E. Raber,1484 Grant Ave,Iowa,0,0,1,0,42.57251438888889,-91.95384877777778
Abe Schrock,21957 Driftwood Blvd,Iowa,0,0,1,0,40.756941,-92.581205
Abers Acres,884 Route 394,New York,0,1,0,0,42.1063389,-78.8791202
Abie Vegetable People LLC,2230 Rd 41,Nebraska,0,0,1,0,40.350542,-97.633034
"Abie Y. & Edna Borntreger, Jr.",20142 County Highway MM,Wisconsin,1,0,0,0,43.88027221879102,-90.5039297741665
"Able Freight Services, LLC",5340 West 104th St.,California,0,1,0,0,33.94188440133042,-118.37326401538013
Abner & Fannie Miller,155 Cedarville Rd,New York,1,0,0,0,42.9328195,-75.11902658189399
Abner & Lydia Allgyer,15503 County Highway D,Wisconsin,1,0,0,0,45.0676108480273,-91.04475145702675
Abner A. Glick,414 Eden Road,Pennsylvania,1,0,0,0,40.069713364097346,-76.29695795771684
Abner Ebersol,979 Sandy Bottom Road,Maryland,1,0,0,0,39.4111253,-75.9109337
Abner S. King,619 West Lincoln Ave.,Pennsylvania,1,1,0,0,40.16968601609896,-76.32187850420704
"Abounding Harvest Mountain Farm, LLC",25015 Mountain Charlie Rd.,California,0,1,0,0,37.11107304489384,-121.99213861395279
Abraham E. & Clara Miller,24935 Lincoln Avenue,Wisconsin,1,0,0,0,43.83818676706864,-90.49376100607724
Abram B. Zook,4210 Red Well Road,Pennsylvania,1,0,0,0,40.064523,-76.053476
Abram L. Miller,296 Phillip Rd,New York,1,0,0,0,42.945095706464336,-74.74822959965304
Abram Z. Smoker,105 Thomas Road,Pennsylvania,1,0,0,0,40.34676711380605,-79.18075191442264
Abundant Harvest Organics,257 N. 6th Avenue,California,0,1,0,0,34.89964200794602,-117.02129239398755
Abundant Terraced Earth,132 Larkspur Court,Colorado,0,1,0,0,40.568727,-105.111344
Açaí Of America Inc.,225 W. 34th St.,New York,0,1,0,0,40.7517799,-73.9920745
Ackerman Certified Organic Farm,29087 N 2850 E Rd,Illinois,0,0,1,0,40.71354078008697,-88.71784277640127
"ACMII California 4, LLC Organic",900 West Grand Avenue,California,0,1,0,0,34.04754,-117.758653
"ACMPC Oregon 1, LLC DBA Humbug Farm Formerly Humbug Farm",3705 Independence Highway,Oregon,0,1,0,0,44.87967386887097,-123.18754208825233
"ACMPC Oregon 2, LLC DBA Halls Ferry Farm Formerly Halls Ferry Farm",5605 Halls Ferry Road,Oregon,0,1,0,0,44.88716883385502,-123.15425299467132
Acorn Community Farm,1259 Indian Creek Road,Virginia,0,1,0,0,36.58817981215636,-76.17373425107955
"Acquistapace Farms, Inc.",629 Simas Road,California,0,1,0,0,34.95574386077961,-120.55839207055611
ACRE Farm LLC dba Four Root Farm,257 Tater Hill Road,Connecticut,0,1,0,0,41.4798654,-72.3598655
Adam A. Miller,8467 Ballard Road,New York,1,0,0,0,42.457555,-78.21888000000001
Adam E. Hershberger,4557 South Lebanon Road,New York,1,0,0,0,42.767911404774026,-75.68405008602939
Adam Konka,3758 Hobday Rd,New York,1,0,0,0,42.619385318180946,-78.23199363590287
Adam N. & Lydiann Raber,3096 Township Road 110,Ohio,1,0,0,0,40.45108,-81.843864
Adamah,116 Johnson Rd.,Connecticut,0,1,0,0,41.63535689291456,-72.44506900448764
Adamow Farm,591 Doing Rd.,New York,1,0,0,0,42.574207,-75.58432
Adam's Acres,32400 Harris Road,Illinois,0,1,0,0,42.33263667001602,-88.01453839045396
"Adams Acres, LLC",7047 Sevier Rd,New York,0,1,0,0,42.94819110453469,-76.03363320086305
Adams Grain Company,1030 East Street,California,0,0,1,0,32.714952,-117.155063
ADAMVS LLC Dba ADAMVS,501 White Cottage North,California,0,1,0,0,37.411126249999995,-122.05714278308321
Adastra Vineyards,2545 Las Amigas Rd.,California,0,1,0,0,38.23018337838151,-122.33267821107422
Aden N. Miller,1398 Parker Street,New York,1,0,0,0,40.836017,-73.846786
Adirondack Hay And Grains Partnership,208 Clark Rd.,New York,0,0,1,0,42.37033127397156,-73.5436201735647
Adirondack View Farm,210 Herman Road,New York,1,0,0,0,42.774898504791096,-74.82544779610788
"Adore Organics Incorporated DBA Love Organic, Inc.",26257 Research Place,California,0,1,0,0,37.403558,-121.9262299
"Aeschlimann Farms, LLC",243 Clemons Rd,New York,1,0,0,0,43.004085,-75.14483854535376
"AFP Advanced Food Products, LLC",158 West Jackson Street,Pennsylvania,1,0,0,0,39.95124039003126,-76.72582469567956
Ag Central Inc.,215 Gilmore Road,Pennsylvania,0,0,1,0,41.163146605075774,-79.95870513351616
AG LAND & CATTLE INC.,4599 COUNTY ROAD KK,Texas,0,0,1,0,34.94012057381859,-102.54551450122214
Ag Source LLC,515 Muddy Run Road,Pennsylvania,0,0,1,0,40.500422981869995,-79.24125749070207
"Aggrigator, Inc.",350 W. Beach St.,California,0,1,0,0,36.907144,-121.763736
"Agpro, Inc.",2940 W. Betteravia Rd.,California,0,1,0,0,34.91819545738883,-120.51796001903081
"Agrana Fruit US, Inc",16197 North County Road #25-A,Ohio,0,1,0,0,40.5495369,-84.5640773
"Agrana Fruit US, Inc.",8864 Sixty Road,New York,0,1,0,0,43.1898119,-76.3222084
Agreda Acres,2779 E. Lynn Rd.,Illinois,0,0,1,0,42.15965587463207,-89.27961382294495
Agriculture Lands Conservancy Dba Happy Valley Farm,1050 Happy Valley Road,California,0,1,0,0,37.632544374718,-121.87023101804796
Agro-Jal Farms,257 Kathleen Ct.,California,0,1,0,0,34.95419185714285,-120.45653957142858
Agro-Jal Farms,Thompson Rd,California,0,1,0,0,34.9438762,-117.1630336
Agropur,105 E 3rd Avenue,Wisconsin,1,0,0,0,42.681769,-88.54166179679953
Agropur Inc,5252 Clay Ave. SW,Michigan,1,0,1,0,42.869583172970614,-85.6770799847973
"Agrovice, Inc.",5828 Road 32,California,0,1,0,0,36.036313,-119.500388
Ahimsa Sanctuary Farms LLP,4504 Hana Hwy,Hawaii,0,1,0,0,20.76572217647059,-155.99516647058823
Air Hill Acres,8445 Nyesville Road,Pennsylvania,1,0,0,0,40.032481392455196,-77.61773813275157
Airport Warehouse at Charlotte LLC dba Cross Anchor Farm,200 Fuller Road,South Carolina,0,0,1,0,34.629168500000006,-81.8510648296492
"AJ Compagnola, LLC",301 Nolf Road,Pennsylvania,0,0,1,0,41.03305163131313,-79.20017933333334
AKC Commodities Inc.,"1086 STELTON RD, PISCATAWAY,",New Jersey,0,1,0,0,40.5656209,-74.4554745
Alan Rennells Farm,4884 County Farm Rd,Michigan,0,0,1,0,43.307942187500004,-82.62081
ALBA - Agriculture & Land-Based Training Association,1700 Old Stage Rd.,California,0,1,0,0,36.610464,-121.518115
Alba Ranch,2015 Raccoon Rd,Kansas,0,0,1,0,40.00006916219839,-95.41552628552425
Albert L Miller,7209 Walters Rd,Michigan,0,1,0,0,42.879036407863204,-84.33852215948198
"Albert Lea Seed House, Inc.",1414 W Main St,Minnesota,0,0,1,0,43.646651420183034,-93.38926981838074
Alberto's Farm Organic,8050 Lovers Lane,California,0,1,0,0,36.96244807376445,-121.43148566750567
Albert's Organics East,1155 Commerce Blvd,New Jersey,1,1,0,0,39.765127884649466,-75.37964208165559
Albert's Organics Twin Cities Division,1000 Eagle Ridge Drive,Wisconsin,1,1,0,0,44.9987399,-92.5439503
"Albert's Organics, Inc.",17901 E 40th Avenue,Colorado,1,1,0,0,39.7729011,-104.7898107
Albert's Organics-South,6284 McIntosh Road,Florida,1,1,0,0,26.067635888916655,-80.12365531547267
Albert's Organics-West,3268 E Vernon Avenue,California,1,1,0,0,34.00549013667922,-118.21405066256753
Albinger Farm,N1568 State Highway 57,Wisconsin,0,0,1,0,44.5576901,-87.8814014
Albireo Endeavors Dba Albireo Vineyards,31141 Rocky Oaks Road,California,0,1,0,0,40.458373187821586,-121.89200128846043
Alcantar Organic Farm,8250 Santa Rosa Rd,California,0,1,0,0,35.46118205,-120.6655957469837
Alchrist Farm,23086 820th Ave,Minnesota,0,0,1,0,44.7743956,-95.0008843
Alejandro Bulgheroni Estate,500 Meadowood Lane,California,0,1,0,0,38.3051978,-122.4854809
Alejandro Ramirez Organic Dba Alejandro Ramirez Farms,20027 Audrey Ln.,California,0,1,0,0,36.819048,-121.623089
Alemaya Farm,7261 County Road 49,California,0,1,0,0,34.631298,-117.2023706
Alexandra Dates,62610 Monroe St,California,0,1,0,0,34.0857685,-118.3135532
Alexandre Family Farm,8371 Lower Lake Rd.,California,1,0,0,0,34.1364629,-118.8720303
"Alfaverde, LLC",1405 2nd Avenue,Nebraska,0,0,1,0,40.67849857142857,-95.86288912244899
Alfrebro LLC,1055 Reed Road,Ohio,1,0,0,0,39.45459364462512,-84.3342615771838
Alfred State Farm,"Alfred State College, Rte 244",New York,1,0,0,0,42.25612555,-77.79791361746526
Alfredo R Andrade Farming,573 Avenue 388,California,0,1,0,0,36.496067,-119.55878261412904
Alger Vineyards,31630 Forward Rd.,California,0,1,0,0,40.43779025406989,-121.85527940984666
"All American Foods, Inc.",1501 2nd St SE,Minnesota,1,0,0,0,44.021488,-92.4436
"All Good Organics, Inc.",6657 Centerville Road,Minnesota,0,1,0,0,45.148186571428575,-93.05617142857142
"All Ingredients Plus, Inc.",48 Arbor Ln.,New York,1,1,1,0,40.7692095,-73.63147601438358
All Seasons,7649 Oboe Ave,Wisconsin,1,0,0,0,43.73621483140463,-90.83739103128211
All Seasons Farm LLC,4040 County Road 509,Colorado,0,1,0,0,37.20719281374487,-107.62149209652549
ALL STAR Jersey Farm,1758 North Chester Road,Michigan,1,0,0,0,42.59371589220158,-84.91493045660718
"All West Ag, LLC Dba All West Ag",1253 West American Avenue,California,0,1,0,0,36.66314039330743,-119.81332949274167
Allan Edgar,2650 Scott Road,Michigan,1,0,0,0,44.322906250758415,-83.40967327603397
Allan Gandelman,3320 NY 215,New York,0,1,0,0,42.56786659606873,-76.19309049783728
Allan Masselink,315 County Line Ave,Minnesota,0,0,1,0,43.89202542536186,-96.0643587748737
Allan Nazaroff Farm,350 North Floyd Avenue,California,0,1,0,0,36.740091813259674,-119.99696624140442
Allard Farms,5012 McCracken Road,California,0,1,0,0,37.57389522757433,-121.26901037601345
Allen A. Byler,8901 Thompson Road,New York,1,0,0,0,43.291133,-75.241577
Allen A. Miller,3312 Yoder Drive,Delaware,0,0,1,0,39.14449830964014,-75.60683403819473
Allen Berg Farm,10998 County Road 24,Minnesota,0,0,1,0,44.23235423577633,-94.39213408519547
Allen Distribution (Bldg. #1),670 Allen Rd,Pennsylvania,0,1,0,0,41.6307528,-80.3735815
Allen Farms,17113 Dogwood Avenue,Iowa,0,0,1,0,43.142698262309096,-93.43807314316231
Allen Farms Inc,19167 Skyview Rd,Minnesota,0,0,1,0,43.575758467127855,-91.38547297743555
"Allen Flavors,  Inc.",230 St. Nicholas Ave,New Jersey,1,1,0,0,40.907509142857144,-73.97817634693878
Allen Hershberger,1004 Goldman Lane,Wisconsin,1,0,0,0,42.91873651743447,-90.4877628679003
Allen Kauffman,1698 - 150th Street,Iowa,0,0,1,0,42.57116,-91.487648
Allen M. Zimmerman,360 Young Road,Pennsylvania,0,0,1,0,40.96865773255678,-80.1995630122456
Allen Miller,11861 Karnes Road,Ohio,1,0,0,0,39.24057272481959,-83.4590612173203
Allen Miller,243 County Road 29,New York,1,0,0,0,42.59070366642671,-75.46344275679584
Allen Troyer,3845 S-E 550 S,Indiana,1,0,0,0,40.97526492949133,-86.52611579636459
"Allied Avocados And Citrus, Inc.",348 A Street,California,0,1,0,0,33.602191499999996,-117.8983975
"Ally Organics, LLC",338 N. Delaware Avenue,New York,0,0,1,0,40.710207,-73.4726502
ALMAR ORCHARDS LLC,1431 Duffield Rd.,Michigan,0,1,0,0,43.02945940468228,-83.91100588963211
Alpine Echo Farm,9423 Steuben Valley Rd,New York,1,0,0,0,43.30549554551927,-75.26030928095503
Alpine Jay Farm,1536 Township Road 660,Ohio,1,0,0,0,40.63841398561429,-81.67451926808161
Alta Vista Farms LP,136 Marsh Lane,California,0,1,0,0,36.93692395462968,-121.72548844530327
Altdorf Dairy LLC,5052 Spruce Road,Wisconsin,1,0,0,0,44.4272971392468,-89.98386959663539
"Alter Eco Americas, PBC",1663 Mission St,California,1,0,0,0,37.7722684,-122.4190149
Alternative Roots Farm,11197 130th St,Minnesota,0,1,0,0,44.80512350843655,-94.21105842676096
Alton A. Miller/Friendship Organics,2479 520th St. SW,Iowa,0,1,0,0,41.55447744825188,-91.6747299637141
Alvin Coblentz,1120 TR 1133,Ohio,0,0,1,0,41.093048,-83.176476
Alvin D. Fisher,25 Quarry Road,Pennsylvania,1,0,0,0,40.28317225,-75.1297664
Alvin J Mast,15845 TR 190,Ohio,0,0,1,0,40.938063,-83.543844
Alvin Ray Beachy,2270 105th St,Iowa,0,0,1,0,41.496421,-94.158853
Alvin Schwartz,2111 Huth-Sayer Rd,New York,1,0,1,0,42.965957738643404,-75.51693585808869
Alvin Shetler,27498 County Road 37,Minnesota,0,0,1,0,43.94253455537707,-92.00424010611937
Alvin Swarey,6905 Yarnell Rd,New York,1,0,0,0,42.690975,-76.77227977005347
Alvin W. Weaver,3236 Gates Road,New York,1,0,0,0,42.8761695,-77.05279534444445
Amaltheia Dairy LLC,3380 Penwell Bridge Road,Montana,1,0,0,0,45.805371,-111.10437774596186
Amanda Mcdoniel Organics,1556 Hwy 11,Arkansas,0,0,1,0,34.0802432,-91.6999186
Amaral's Apples,1966 Green Valley Rd.,California,0,1,0,0,34.4458039,-117.2405309
"Amazing Coachella, Inc. Dba Peter Rabbit Farms",85810 Peter Rabbit Ln.,California,0,1,0,0,33.68130945,-116.17283242169812
Amazing Vitamins LLC,190 A Jony Dr.,New Jersey,0,1,0,0,40.82772130612245,-74.0676578367347
"Amazon Thunder, Inc.",701 South Carson St,Nevada,0,1,0,0,39.159869,-119.7669
Ambling Ambystoma Farm,500 Peaceful Valley Dr.,California,0,1,0,0,36.923765,-121.833029
Ambrosio Organic Farm,2734 Ferguson Road,California,0,1,0,0,37.017543,-121.520538
"Ambyth Estate, LLC",510 Sequoia Lane,California,0,1,0,0,35.5528021,-120.64292620941464
American Beverage Corporation,13512 Business Center Drive Northwest,Minnesota,0,1,0,0,45.305593061467285,-93.6216471483539
"American Botanicals, LLC",24750 Hwy. FF,Missouri,1,0,1,0,38.412789,-92.493573
"American Heritage Land Holdings, LLC",3002 West Windsor Road,Illinois,0,0,1,0,40.083432,-88.242047
American Natural Processors,1510 S. 2nd St,Iowa,0,0,1,0,41.82995612521481,-90.18826881870558
American Pasteurization Company - Comanufacturing,2880 N. 112th Street,Wisconsin,1,1,0,0,43.07227546396536,-88.05271272127365
"American River Ag, Inc.",510 Gilmore Ave.,California,0,0,1,0,33.9907869,-118.4257751
"American Soy Products, Inc.",1474 Woodland Dr,Michigan,1,0,1,0,42.262616388325114,-83.76061999212776
"American Vegetable Oils, Inc.",7244 Condor St.,California,0,0,1,0,35.40408426265456,-118.9187237934457
"Americold Logistics, LLC",17113 County Road 29,Minnesota,0,0,1,0,44.339422049999996,-94.51545345
Amerikoa Ingredients,2156 W. Belle Plaine Ave.,Illinois,0,0,0,1,41.956101399999994,-87.6834171705247
"AMI Newco, LLC DBA Aloha Medicinals",2300 Arrowhead Drive,Nevada,1,1,1,0,39.198542,-119.7452077862076
Ammon S. Fisher,413 Ebenezer Church Road,Maryland,1,0,0,0,39.6392780813497,-76.0100106592475
Ammon Zimmerman,1623 Breon Road,Pennsylvania,0,0,1,0,41.03323,-77.195175
Amos & Johnny Nisley,21336 Koppert Road,Ohio,1,0,0,0,40.534727,-82.352884
Amos A. King Farm,371 Kocher Road,Pennsylvania,1,0,1,0,40.2776078,-76.0493164
Amos Borntrager,3217 460th Street,Iowa,0,0,1,0,43.42973382629334,-93.91616972498953
Amos D Miller,14839 Township Road 206,Ohio,0,0,1,0,40.540606962074406,-83.59265278836799
Amos E. Stoltzfus,1724 Valley Road,Pennsylvania,1,0,0,0,40.7336229448373,-75.48894149558139
Amos J Stoltzfus,654 Mt. Vernon Rd,Pennsylvania,1,0,0,0,40.000875418434084,-75.98080054082995
Amos J. Stoltzfus,180 Indian Trail Road,New York,1,0,0,0,42.982401179795175,-78.76448440260522
Amos King,325 Beechdale Rd.,Pennsylvania,1,0,0,0,40.04159651113689,-76.18347698464162
Amos L. Beiler,314 A Lamparter Rd.,Pennsylvania,1,0,0,0,39.9129155,-76.0765158
Amos L. Fisher,2710 Far Hills Avenue,Ohio,1,0,0,0,39.706549,-84.170529
Amos L. Lee,2839 County Road 55,New York,1,0,0,0,44.88849537826084,-74.69725160643787
Amos L. Petersheim,3328 460Th Street,Iowa,0,0,1,0,42.9824253873988,-94.91961552947663
Amos M. Stoltzfus,2571 Main Street,Pennsylvania,1,0,0,0,40.6182836,-75.3828259
Amos N. Raber,64 Barcomb Rd,New York,1,0,0,0,44.847082799999995,-73.88075280000001
Amos S Esh,870 N College St,Pennsylvania,1,0,0,0,40.45282777521242,-79.92687595529858
Amos S. Byler,209 Brower Road,New York,1,0,0,0,43.091593,-74.2621376166983
Amos S. Esch,223 Masser Road,Pennsylvania,1,0,0,0,41.10689329560402,-76.94892099205516
"Amos S. Fisher, Jr.",1039 Fishing Creek Road,Pennsylvania,1,0,0,0,41.03329402598831,-77.48813333891171
Amos S. Gingerich,16035 T.R. 265,Ohio,0,0,1,0,40.9202816,-83.9153991
Amos S. Lantz,7872 N. Sugar Grove Rd.,Indiana,1,0,0,0,39.94321292956373,-85.07215140596492
Amos Smoker,273 Ants Hill Rd,Pennsylvania,1,0,0,0,41.0988681469999,-76.62510547491016
"Amos Zittel & Sons, Inc.",3208 Bley Road,New York,0,1,0,0,42.6808055,-78.87336525
Ampelos Cellars,7253 Santos Road,California,0,1,0,0,34.618427399045785,-120.28293349808636
Amridge Organics,14983 County Rd 558,Missouri,1,0,1,0,36.562162,-89.929908
Amy's Garden,13630 Sandy Point Rd,Virginia,0,1,0,0,37.300757084827964,-76.96584053976659
Amy's Kitchen,441 West Antelope Road,Oregon,0,0,1,0,42.42814073019122,-122.90014874573441
"Amy's Kitchen, Inc.",2330 Northpoint Pkwy.,California,0,1,0,0,38.41572439995741,-122.75489388958684
Anchor Run CSA,2578 Second St Pike,Pennsylvania,0,1,0,0,40.28088,-74.993714
Ancient Lake Gardens,8993 Soda Bay Road,California,0,1,0,0,38.948678,-122.733808
Anderson Farm,73586 CSAH 21,Minnesota,0,0,1,0,47.155357,-95.826109
ANDERSON ORGANIC ACRES Dba Mark Anderson,18690 US 67,Illinois,0,0,1,0,39.7489208,-90.2956637
Anderson Organics,5404 Paulson Road,Illinois,0,1,0,0,42.33948540427645,-88.95020113810295
Anderson Vineyards Dba Roederer Estate,9201 Highway 128,California,0,1,0,0,36.676059,-121.656874
Andes Harvest Inc Dba Sweet Heart Group Ltd,"17568 Rowland Street, City of Industry",California,1,1,0,0,34.00169487724445,-117.92086309517653
ANDLOR INC. - Andy & Lori Faeh Toby Schweitzer,1608 E 26th Rd,Nebraska,0,0,1,0,41.060838836734696,-97.981775
Andresen Farm,5751 140th St,Iowa,0,0,1,0,43.44489037330192,-95.10639665841697
Andrew & Emily Mchargue,1313 12th Road,Nebraska,0,0,1,0,41.049930550887595,-98.0771509359595
Andrew Barsness,13246 100th St,Minnesota,0,0,1,0,44.76045199219085,-94.26218460388179
Andrew Coblentz,4991 TR 419,Ohio,1,0,0,0,40.973013,-81.414226
Andrew Derstine Farm,6542 Cream City Rd.,Wisconsin,1,0,0,0,44.91039185311556,-87.95777041610478
Andrew Groppetti Farms,18549 West Floral Avenue,California,0,1,0,0,36.57446554170032,-120.12963997520065
Andrew Kauffman,1701 150th Street,Iowa,0,0,1,0,42.571569,-91.469899
Andrew M. Zook,351 Scenery Drive,Pennsylvania,1,0,0,0,40.27853671491039,-79.83683633732161
Andrew Mast,33426 Old Fort Road,Minnesota,0,0,1,0,43.86519018175256,-92.03882910313371
Andrew N Yoder,8451 West Broomfield Rd,Michigan,0,1,0,0,43.58158789795919,-85.01431871428572
Andrew Nees,2110 210th Street,Iowa,0,0,1,0,42.48443297845461,-91.37211832690166
Andrew R Yoder,2293 Johnson Washington Rd,Iowa,0,0,1,0,41.51107508477765,-91.70237498629606
Andrew Snarski,365 Wyman School Road,Illinois,0,0,1,0,42.39924886297265,-88.9323148315436
Andrew Stoll,342 Wells Road,New York,1,0,0,0,42.835428638638994,-74.17593399803245
Andrew Yoder,2271 TR 406,Ohio,1,0,0,0,38.4536412,-82.5055486
Andrews Farm,183 West Hill Rd.,Maine,0,1,0,0,44.22173227208418,-69.79246017601758
Andrews Farms Inc,12878 Road 209,Ohio,0,0,1,0,41.13129,-83.892423
"Andris Family Farm, LLC",2643 East Township Road 324,Illinois,0,0,1,0,39.694788,-90.780738
Andy A. Mast,96 Lantry Road,New York,1,0,0,0,44.9196055,-74.59678902684294
Andy A. Mast,190 E. Mahoney Road,New York,1,0,0,0,44.91196524657048,-74.65686677308659
Andy Anderson,7 Park View Drive,Illinois,0,0,1,0,41.5821307,-87.5664479
Andy D. Mast,242 Hickory Hill Road,New York,1,0,1,0,42.94445816816348,-74.59231573472782
Andy Davis,18597 160Th Street,Iowa,0,0,1,0,42.55961562443682,-94.74996317695994
Andy G. Mast,397 Steam Mill Road,New York,1,0,0,0,44.834925299999995,-73.93667470303359
Andy Helmuth,2836 Quarter Road,Iowa,1,0,0,0,42.378133592791755,-91.28508922256614
Andy Hershberger,181 90th Ave,Illinois,0,0,1,0,40.762505705258135,-90.75624958614999
Andy J. Yoder,421 Hickory Hill Road,New York,1,0,1,0,42.9427605,-74.57032727272727
Andy Juhl,48232 C16,Iowa,0,0,1,0,42.836833,-96.449455
Andy L. Byler,1994 Bradley Pond Road,New York,1,0,1,0,44.8543728,-73.89016560488506
Andy Mast,60 Lamb Rd,New York,1,0,0,0,44.9205028,-73.97521929999999
Andy Raber Farm,1286 Indiana Ave,Iowa,0,0,1,0,42.60725333069882,-94.2851431089295
Andy S. Troyer,204 Brumley Rd,New York,1,0,1,0,42.900269265422,-74.43173593814053
Andy Yoder & Fannie Yoder,28231 Northland Avenue,Wisconsin,1,0,0,0,43.7608,-90.404771
"Andy's Organic Acres, LLC",4863 Meadow Dr,Wisconsin,1,0,0,0,44.59474951311694,-88.17676864117387
Andy's Specialty Garlic & Produce,1980 Parker Road,New York,0,1,0,0,43.0811185,-77.1101830058592
Angel Acres Farm LLC,60500 Maple Ridge Rd,Wisconsin,0,1,0,0,43.205652,-90.811908
Angelic Organics,1547 Rockton Road,Illinois,0,1,0,0,42.45417676380655,-88.89074855988966
Anima Mundi Herbals LLC,31 Noble Street,New York,1,0,0,0,40.728173976190476,-73.95959019047619
ANIMAL FARM,16723 SYCAMORE ST.,Texas,0,1,0,0,30.062317,-94.079778
"Ankrum Enterprises, LLC Dba TK Farms",6336 S. Alta Avenue,California,0,1,0,0,36.64256693744506,-119.39468891881954
Anne-Ly Crump-Garay Revocable Trust Dba Rainbow Ranch Organics,640 Tico Rd.,California,0,1,0,0,34.44280516124524,-119.28192945712317
Annie's Acres,4237 Buffalo Rd,Illinois,0,0,1,0,37.875641049477466,-88.29567441247553
Annie's Heirloom Seeds LLC,4646 Ransom,Michigan,0,1,0,0,41.7753274,-84.5341161
Anomaly Vineyards,455 Bella Vista Ct.,California,0,1,0,0,38.48971671428571,-122.47239397959184
ANT JV,1441 5TH STREET,Texas,0,1,0,0,33.910005250000005,-98.50289672727273
ANTELOPE VALLEY FARMS/MUSIL FARMS,47715 280th Rd.,Nebraska,0,0,1,0,40.94536,-98.84744527027027
Anthony D. Burkholder,35750 Line School Road,New York,1,0,0,0,43.953138,-75.665844
Anthony F Cubre Jr.,13140 W Shaw Ave.,California,0,1,0,0,36.80778829514947,-120.03112957011017
Anthony Lizza,5608 Covenant Court,Pennsylvania,0,1,1,0,40.37518,-75.0694
Anthony Oberholtzer,1500 Pine Grove Road,Pennsylvania,0,0,1,0,40.68927610959516,-80.41564688051363
Anthony Schlabach,14649 Emerson Rd,Ohio,1,0,0,0,40.740954,-81.72276766934125
"Anthony Vineyards, Inc.",85215 50th Avenue,California,0,1,0,0,33.6886605,-116.1795500803525
Antique Valley Farm,4619 State Route 41,New York,1,0,0,0,42.82635,-76.277995
"Apollo Olive Oil, Inc.",12585 Rices Crossing Road,California,0,1,0,0,39.32728770744361,-121.25120566482715
"Apple & Eve, LLC, A Subsidiary Of Lassonde Pappas & Company, Inc.",1 Collins Drive,New Jersey,0,1,0,0,40.781211,-74.477662
Apple Acres Farm,363 Durgintown Rd.,Maine,0,1,0,0,43.8262013,-70.8222612
"Apple Creek Farm, LLC",448 Millay Rd,Maine,0,1,0,0,44.0438883,-69.9157014
Apple Garden Farm,3875 Tomales Petaluma Road,California,0,1,0,0,38.242151552401374,-122.89959753819043
Apple Hill Ranch,475 Sierra Grande,California,0,1,0,0,37.28724851020409,-118.394384
Apple Lane Farm,4580 Pringle Road,Michigan,1,1,0,0,43.5761916122449,-83.01715753061224
Appleton Farms,219 County Road,Massachusetts,0,1,0,0,41.65504675,-70.62358130208332
Appleton Organics,292 Strickersville Rd,Pennsylvania,1,0,0,0,39.7299406,-75.848451
Applewood Ranch,6551 Glenhaven Rd.,California,0,1,0,0,39.0262843,-122.7330443
Apricot Lane Farms Operations LLC,10700 Broadway Road,California,0,1,0,0,34.315148,-118.921295
Aptos Berry Farms,1767 San Juan Road,California,0,1,0,0,38.6274216,-121.4953378
Aptos Farm,555 Charlson Rd.,California,0,1,0,0,37.00092686539824,-121.86449319731659
Apulum Garden,23619 Sauk Prairie Rd.,Washington,0,1,0,0,48.305316896673155,-121.52290731403625
Aquila Brenneman,2330 500th St. SW,Iowa,0,0,1,0,41.56940929025029,-91.70683526541066
"Arandanos, Inc.",535 Monterey St.,California,0,1,0,0,36.9579095,-122.0304808
"Arbor Organic Technologies, LLC",107 Technology Drive,North Carolina,0,0,1,1,35.48885424693836,-82.55735962822048
Arbor Vineyards Inc. Dba Mettler Family Vineyards,15362 N Alpine Rd,California,0,1,0,0,38.12587295946131,-121.21508733156199
Arbre Farms Corporation,6362 N 192nd Ave,Michigan,0,1,0,0,43.756743637583895,-86.07812961073824
Arcadian Fields,94 Blitzkrieg Trail,Rhode Island,0,1,0,0,41.54150501749345,-71.70956690053522
"Archer Grain, LLC",2231 Archer Rd,New York,0,0,1,0,42.921894,-77.174972
"Archi's Acres, Inc.",10085 W. Lilac Rd.,California,0,1,0,0,33.274489,-117.114004
Aric A. Loomis,3023 Taylor Rd,New York,1,0,0,0,42.934533,-77.15635517810458
Arizona Organic Family Farms,6750 E. Exeter Blvd.,Arizona,0,1,0,0,33.498554218000635,-111.93568747274485
Arizona Production & Packaging,7303 S Kyrene Road,Arizona,0,1,0,0,33.3418938,-111.9457498
"Arizona Valley Farming, LLC",36503 Carters Road,Arizona,0,1,0,0,33.819574,-113.59274
Arlan Zimmerman,583 County Route 3,New York,1,0,1,0,40.69420104106161,-73.65614395893839
Arlington Ag Research Station,N695 Hopkins Road,Wisconsin,0,0,1,0,43.5386857,-89.0016373
Armstead Mountain Farm,14733 White Oak Mountain Rd,Arkansas,0,1,0,0,35.150888,-94.166826
Arnold Farms,4256 Van Geisen Rd,Michigan,0,0,1,0,43.48041206659348,-83.5174197296317
Around The Well Farm,67 S. Hunts Meadow Rd.,Maine,0,1,0,0,44.2155616,-69.6584292
"Arreff Terminals, Inc.",3600 Elm Avenue,Virginia,0,0,1,0,36.809585999999996,-76.30748965285244
Arrow Head Ridge,949 Reeves Rd,Virginia,1,0,0,0,38.384888502931624,-79.06364429337407
Arrowhead Farms,185 Buzzard Lagoon Rd.,California,0,1,0,0,37.024075070120546,-121.8272208661453
Art Behrens,25273 Kittyhawk Avenue,Iowa,0,0,1,0,41.9869278502046,-94.89847171288088
ARTESIAN FARM,151 S. Downey Ave.,Indiana,0,0,1,0,39.76798385194394,-86.0770376874223
Arthur Harvey & Elizabeth Garcia-O'keefe,1197 Main St,Maine,0,1,0,0,44.0338807,-70.966304
ASA Organics Dba Braga Fresh Family Farms,33750 Moranda Road,California,0,1,0,0,36.433328,-121.336935
ASCENT FOODS LLC,1602 ISLAND ST,Texas,0,1,0,0,27.551180944930273,-99.50978213454565
Aseptic Solutions USA,484 Alcoa Circle,California,1,0,0,0,33.89327261943005,-117.58414903221977
Ashbourne Farms,3801 Old Westport Rd.,Kentucky,0,1,0,0,38.45046688519377,-85.42732603643658
"Ashe Jr, John E",460 Monroeton Rd,North Carolina,0,0,1,0,36.30053456738538,-79.73648371701393
Ashgrove Farm,22 Lawrence Rd,Maine,0,1,0,0,44.2735168,-69.008195
Ashley Williams,757 Hickory Cross Road,North Carolina,0,0,1,0,36.31833806300984,-76.55911244028879
Ashmore Acres,2267 Buhl Rd,Michigan,0,0,1,0,41.9934087273696,-83.33369387309348
Ashrey Farms,3296 Old Whigham Road,Georgia,0,1,0,0,30.90768022674767,-84.48253157387778
Askegaard Organic Farm-Mark Askegaard & Beth Mcconnon,2856 150th Ave S,Minnesota,0,0,1,0,46.6740411452325,-96.73556142260742
"Aslan Cold Storage, LLC",1045 Simpson St.,California,0,1,0,0,36.510072136111674,-119.55053300190504
"Aspen Moon Farm, LLC",8020 Hygiene Rd.,Colorado,0,1,0,0,40.18861828965294,-105.17152957558017
Assman Land And Cattle,28636 283rd Avenue,South Dakota,0,0,1,0,44.503367,-100.471837
"Associated Food Stores, Inc.",1850 West 2550 North,Utah,0,1,0,0,41.304341119431975,-112.02186230470905
ATA Ranches Inc.,108 Peachy Canyon Rd.,California,0,1,0,0,35.596825,-120.8140863
Athreya Corp. Dba Let's All Be Healthy,1807 Business Center Dr.,California,0,1,0,0,34.13406735831368,-117.96637044497615
Atlantic Blueberry Company,7201 Weymouth Road,New Jersey,0,1,0,0,39.5477536,-75.0599854
Atlantic Frozen Foods,9025 North Atlantic Avenue,Florida,0,1,0,0,29.2639017,-81.0265805
Atlas Farm LLC,635 River Rd.,Massachusetts,0,1,0,0,42.54883605,-72.56306424861212
Atlee J. Keim,168 Borden Road,New York,1,0,1,0,42.85749522353076,-78.70881152929992
Atlee J. Yoder,1829 Angle Road Sw,Iowa,1,0,0,0,41.56267276349277,-91.74891024228975
Atlee Weaver,351 Reynolds Road,New York,1,0,0,0,43.25088039774312,-73.66018673280227
"Attune Foods, LLC",2545 Prairie Road,Oregon,0,1,0,0,44.10144873737649,-123.16192449406813
Aubertine Farms,36165 Pelo Rd,New York,1,0,1,0,44.18997101176436,-76.17292226801696
Aultman Farms,5990 Bergman Rd,Michigan,0,0,1,0,45.11908471428571,-85.03982765306122
"Aunutra Industries, Inc.",5625 Daniels St,California,1,1,1,0,34.00089459731313,-117.68209630687183
Aurora Farms,4458 Lake Rd,Vermont,0,0,1,0,44.29235312460803,-73.27090516133252
Aurora Mills & Farm LLC,408 Burton Rd.,Maine,0,0,1,0,46.0719626,-67.9523703
Aurora Organic Dairy,4525 Waco Road,Missouri,1,0,0,0,39.01160273227891,-92.26819703923026
Aurora Organic Farms - Coldwater,5490 County Rd. Y,Texas,1,0,0,0,30.283383,-94.397915
Aurora Organic Farms - High Plains,28520 WCR 72,Colorado,1,0,0,0,40.2245962,-105.0553296
Aurora Organic Farms - Pepper,4519 County Rd. 340,Texas,1,0,0,0,33.26171682361162,-96.56282237263288
Aurora Organic Farms - Platteville,26788 State Highway 66,Colorado,1,0,0,0,40.2400889,-105.3153878
"Aurora Products, Inc.",205 Edison Road,Connecticut,0,1,1,0,41.26087995,-72.99590262138972
Austen Etherton & Laura Besley Living Trust,8730 Old Route 66,Illinois,0,0,1,0,39.674005933241986,-89.62464875719476
Austin Simone,56 Seavey Rd,New York,1,0,0,0,44.377973,-75.47953685721703
Autumn Valley Farm,1644 County Hwy 39,New York,1,0,0,0,42.60808968540868,-74.75221291893124
"AV Holdings, LLC Dba Poleeko Ranch",1542 Kalmia St.,California,0,1,0,0,37.55216293394478,-122.31660388502769
"Avalon Cold Storage, LLC",2501 West Rosecrans Avenue,California,0,1,0,0,33.9018365,-118.2835023
Avatar Corporation,500 Central Ave.,Illinois,0,0,1,0,42.0766059,-87.6937343
Aveka Nutra Processing,830 Allamakee Street,Iowa,0,0,1,0,43.277166283296644,-91.47568197338444
Avina Organic Farms,1700 Old Stage Rd.,California,0,1,0,0,36.610464,-121.518115
Aya Farms,5296 Buck Rd,California,0,1,0,0,34.2646019,-117.3215654
"Aycold Fresh, LLC",1501 N.W. 12th Ave.,Florida,0,1,0,0,25.8507153,-80.3063933
Ayers Creek Farm,15219 SW Spring Hill Road,Oregon,0,0,1,0,45.404663290465926,-123.1032707697214
Ayoquezco Organic Produce,1700 Old Stage Rd.,California,0,1,0,0,36.610464,-121.518115
AZ-Ranch,2420 Kanan Rd.,California,0,1,0,0,34.11992260294779,-118.79205759327174
B & B Farms,4708 West Ball Road,Michigan,0,1,0,0,41.963879,-84.650912
B & B Organics LLC Dba Cowhorn Vineyard & Garden,1665 Eastside Rd.,Oregon,0,1,0,0,42.15549208159067,-123.04773100932027
B & G Futures Inc,4084 Holiday St NW,Ohio,0,0,1,0,40.85107651219436,-81.42518689132258
B & H Organic Produce,211 Twin County Rd.,Pennsylvania,0,1,1,0,40.147586706366546,-75.904358
B & W Farms LLC,3131 La Posta Rd,California,0,1,0,0,32.717421325584304,-116.4293728947838
B & Y Farms,15951 SR 292,Ohio,0,0,1,0,40.594948426578696,-83.5935962842027
B And B Farms,15365 S 12th Ave E,Iowa,0,0,1,0,41.688053728104904,-92.7692531809122
B&D TRADING,2223 Dodge Street,Michigan,0,1,1,0,42.4833608,-82.9528488
B&J Farm,243 Red Ridge Rd,Pennsylvania,0,0,1,0,40.89203603193523,-77.04540799244768
B. Brooks Farm,975 Ayers Rd,Virginia,1,0,0,0,37.169274,-79.519177
B. Miller Farms,6821 Bailey Rd,Michigan,0,0,1,0,43.21635454545454,-82.95978986713287
"Babler, Inc Dba. Cascade Cheese Co.",302 E Water St,Wisconsin,1,0,0,0,44.259709,-88.402854
B-A-Blessing Farm,1553 Heselton Gully Rd,New York,1,0,0,0,42.0676245,-77.762817
Back Home Farm LLC,2387 Lucas Turnpike,New York,0,1,0,0,41.82322952944278,-74.14637605005228
Back Porch Produce,10260 Fairview Road,New York,0,1,0,0,42.4479175,-78.2930061567414
BACK ROAD FARMING,9193 Sebewaing Rd.,Michigan,0,0,1,0,43.72759677386935,-83.34647628140704
Backwoods Organics,590 Spring Hill Road,Pennsylvania,1,1,0,0,41.48265308847863,-75.85518969722494
"Bactolac Pharmaceutical, Inc. Aka  Atlantic Essential Products Inc",620 Old Willets Path,New York,1,1,0,0,40.81227777342861,-73.23325891516834
Bad Dog Farms,27140 Meadows Rd.,California,0,1,0,0,36.527905546727496,-121.84125125365311
Badger AG Results INC.,7093 Oak Rd.,Wisconsin,0,0,1,0,44.50283984880246,-90.02457773718204
"Badia Spices, Inc.",1400 NW 93rd Avenue,Florida,1,0,0,0,25.78759455,-80.3463018195919
Baer Bros Farm,891 Baer Lane,Pennsylvania,1,0,1,0,40.00509936806805,-79.16585988686039
Baerg Orchards,795 Pollasky Avenue,California,0,1,0,0,36.82090026160561,-119.70189337302021
Baergård Hosfeld’S Berry Farm,2312 Williams Drive,Wisconsin,0,1,0,0,42.975041817020816,-89.22029734487084
Baese Family Farm LLC,4639 E Ridge Rd,Michigan,1,0,1,0,43.09603581804312,-84.47443379984621
Bahner Farm,153 Augusta Road,Maine,0,1,0,0,44.4033268,-69.1107763
Bailey Farms,1661 N 1100 E Road,Illinois,0,0,1,0,39.889198,-87.730429
Bailey Vineyards And Walnuts,4985 Peachy Canyon Rd,California,0,1,0,0,35.624834,-120.78359497261147
Bains Farming LP,6239 Sawtelle Road,California,0,1,0,0,34.0361107,-118.4503563
Baird Seed Company,1122 Knox Highway 18,Illinois,0,0,1,0,40.87713315472602,-90.04324380572395
Bairds Maple View Farm LLC,18700 County Road 216,Ohio,0,0,1,0,41.10858572230572,-83.53353925805155
Bair-Trax Dairy LLC,2148 S. Childrens Home Road,Ohio,1,0,0,0,39.99988537373738,-84.14406917171716
"Baker Family Vineyard At Moccasin Creek Farm, Inc",9409 Baker Rd,North Carolina,0,1,0,0,35.885697639600124,-78.31267615240243
Baker Farm,1307 Whittaker Road,Pennsylvania,1,1,1,0,41.311349,-75.191815
Baker Farms (Terry & Joe),3667 Ellenton-Norman Park Road,Georgia,0,1,0,0,31.21361714788608,-83.58719090932996
Baker's Organic Acres,292 Clark Rd. S,Ohio,0,0,1,0,40.573447236706194,-83.40648398382335
"Bakker, Arend J.",4370 Number Nine Rd,New York,0,0,1,0,42.909442,-75.841062
Baldwin Ranches,2242 Nelligan Rd.,California,0,1,0,0,38.404669,-122.521636
Balfour Enterprises Dba Johnston Farms And Johnston Family Organics,38500 County Rd. 14,California,0,1,0,0,38.778883,-121.793365
Balfour Farm,461 Webb Rd.,Maine,1,1,0,0,44.76001035,-69.44339294393438
Ballentine Farms,1114 Beech Grove Road,Pennsylvania,0,1,0,0,41.64002619850068,-75.3250157704875
Baloian Farms,446 N. Blythe Ave.,California,0,1,0,0,36.74375869696735,-119.87119146088885
Bamboo Juices LLC,502 Toombs Street,Georgia,1,0,0,0,33.5177634,-84.66986483217264
Banes Organic Farm,2914 V Ave,Iowa,0,0,1,0,42.028991,-92.357996
Banner Farm,311 Schuyler Road,Pennsylvania,0,1,1,0,41.089888521135364,-76.75483835809982
Bannockburn Farm,20212 Edom Rd.,Minnesota,0,1,0,0,45.4104737,-94.3725467
"Bar Ale, Inc.",1011 Fifth Street,California,0,0,1,0,38.891746997716034,-121.29764122611262
"Bar Harbor Farm, LLC",115 Gilbert Farm Road,Maine,0,1,0,0,44.409071499999996,-68.32828799999999
Barbara Kraus,2912 Manawa Trail,Iowa,0,1,0,0,43.359088,-91.70014
Barbour Vineyards,2125 Inglewood Ave.,California,0,1,0,0,38.015279,-121.317562
Bardessono,6526 Yount St.,California,0,1,0,0,38.40262647664539,-122.36111171084187
Barefoot Botanicals LLC,380 N Shady Retreat Road,Pennsylvania,1,0,0,0,40.305577181569184,-75.1560492732978
Barker Family Farms LLC,NC 119,Virginia,0,0,1,0,38.030395549999994,-78.51354269378632
Barndiva Farm,20017 Philo Greenwood Road,California,0,1,0,0,39.07703022159715,-123.51874708976399
Barnes Farming Corporation,7840 Old Bailey Highway,North Carolina,0,1,1,0,35.86570753292607,-78.00875434787903
"Barnes Roots & Herbs, LLC",120 Francis Drive,Missouri,1,0,0,0,39.438081635712386,-91.06657312556163
"Barnett-Partin Plants, Inc.",1400 CR 830A,Florida,0,1,0,0,26.5295818,-81.4185261
"Barr, Adam",2440 Popham Rd,Kentucky,0,1,0,0,37.97433854832806,-86.40182471311722
Barren's Edge Organic Farm,229 Sawmill Lane,Pennsylvania,0,1,0,0,40.91876037917537,-79.95248441048072
Barrington Hills Farm,2790 Spring Creek Road,Illinois,0,0,1,0,42.168678592123015,-88.25698189674166
Barrios Bros Inc.,12452 County Road 98,California,0,1,0,0,38.75784100012892,-121.80341371664004
Barrow Farms Inc,13347 Buffalo Road,North Carolina,0,1,0,0,35.686199733613655,-78.36772479045574
Barry And Rita D. Lynn/Dig In Organics,1122 Ray Lively Rd,Georgia,0,1,0,0,32.24037202040816,-82.15689671428571
Barry Callebaut USA LLC,400 Industrial Park Rd,Vermont,1,0,0,0,44.16099416085056,-72.08360354425675
Barry Nordwald,16356 Monroe Rd 785,Missouri,0,0,1,0,36.6318976,-94.4988969
Bartholomew Farms,11548 Yankee Rd,Michigan,0,0,1,0,41.730210922670146,-83.82994876174466
Bartholomew Park Winery,1695 Castle Rd.,California,0,1,0,0,35.0048426,-117.6060452
"Basciani Foods, Inc",944 Penn Green Road,Pennsylvania,0,1,0,0,39.81777531966041,-75.768073354508
Basra Farm,6644 Sawtelle Road,California,0,1,0,0,34.0361107,-118.4503563
Bast Family Farm,393 Sabin Rd,New York,1,0,0,0,42.198633,-76.519495
BAT Farm,27510 State Route 511,Ohio,0,0,1,0,41.101461956103414,-82.30391606099701
Batalden Farm,39474 County Road 11,Minnesota,0,0,1,0,44.787223,-93.248081
Batten Ranch,155 Grandview Rd.,California,0,1,0,0,34.252193075043714,-117.23573987066091
"Batth Dehydrator, LLC",4624 W. Nebraska Ave.,California,0,1,0,0,36.561676378611764,-119.87429369411619
"Bauerle, Tom",2750 Beech Fork Rd,Kentucky,1,0,0,0,37.616093262340215,-85.09763717385775
Baumer Farms,1280 S Onondaga Rd,Michigan,0,0,1,0,42.54553996385542,-84.5621739759036
Bawden Farms,119 Factory Road,New York,1,0,0,0,44.4061935,-75.7786085
Baxley Farms LLC,2602 Hanover Rd,South Carolina,0,0,1,0,34.113558111838884,-79.33010895346926
Bay Cities Produce Company,2109 Williams St.,California,0,1,0,0,35.3813121,-118.9762043
Bay Fresh Producer / West Coast Berry Producers,280 Espinosa Rd,California,0,1,0,0,36.74694978526542,-121.70007518917673
Bay Shore Farms,1523 S. Finn Road,Michigan,0,0,1,0,43.521376741935484,-83.77820141935484
Bayside Sod Inc,6204 91st Street E,Florida,0,1,0,0,27.431251713825098,-82.45117840533668
Bayview Farms,176 Bluff Road,California,0,1,0,0,34.00688929012363,-118.10116683849219
BB Farm,525 White School Rd.,Pennsylvania,1,0,0,0,40.11133,-75.88680164346826
"BCT Logistics, LLC",30 N Old Tucson Rd,Arizona,0,1,0,0,32.2186224,-111.1300273
"Be Love Farm, LLC",7071 Bucktown Ln.,California,0,1,0,0,38.391511,-122.023569
"Be Wise Ranch, Inc.",20505 San Pasqual Road,California,0,1,0,0,33.079803591383794,-117.03382271257288
"Beachside Produce, LLC.",1240 A Professional Pkwy,California,0,1,0,0,35.026748687499996,-120.5600135625
Bean Holstein Farm,5630 Bean Road,Mississippi,1,0,0,0,31.02798416294218,-90.70773303718047
Bear Creek Acres Dairy Dba Bear Creek Acres Creamery,24364 Hamlet Rd,Iowa,1,1,0,0,42.72891392525546,-91.31971173432497
Bear Creek Layers,2327 Hwy 32,Missouri,0,0,1,0,38.31543798532763,-91.71496896540357
Bear Creek Orchards Inc.,2500 S Pacific Hwy.,Oregon,0,1,0,0,42.307134794117644,-122.85546058823529
Bear Creek Organic Acres,1596 Big Canoe Road,Iowa,0,0,1,0,43.42169681818182,-91.713141
"Bear Creek Organics, LLC",4012 Atkins Road,Michigan,0,1,0,0,45.36287390909091,-84.88752696969698
Bear Creek Ranch,401 Winchester Canyon Rd,California,0,1,0,0,34.481337,-119.906906
"Bear Park Trucking, LLC",2845 460th St,Minnesota,0,0,1,0,47.42046511327281,-96.08908667975595
Bear Pen Buffalo Ranch,N3953 Bear Pen Rd,Wisconsin,0,1,0,0,44.553064,-92.058035
Bear Swamp Orchard,1209 B Hawley Rd.,Massachusetts,0,1,0,0,42.55431215647634,-72.83442016641399
Beau Chemin Preservation Farm,1749 Finntown Rd.,Maine,0,1,0,0,44.0733542,-69.2968083
Beau Heithoff,52526 839 Road,Nebraska,0,0,1,0,41.983981,-98.625912
Beaver Creek Farm,11386 W. Henry Rd.,Illinois,0,0,1,0,41.95964642929799,-89.55819287657681
Beaver Creek Farm,83 Gilbert Rd,New York,1,0,0,0,44.443968999999996,-75.47667427731093
Beaver Dairy Farm,5871 State Road 335,Ohio,1,0,0,0,39.53556763380281,-84.60347690140844
Beaver Hollow Farm,2500 Clarks Corner Road,New York,1,0,0,0,43.2214623,-73.6415059
"Beaver Run Organics, LLC",2454 Beaver Run Road,Pennsylvania,0,0,1,0,41.27166877542644,-76.59393940168209
Beberian Family Farms,9181 West Dakota,California,0,1,0,0,33.6136924,-117.10299552150762
Bebow Farms,2410 E Monroe Rd,Michigan,0,1,1,0,43.75896648979592,-86.21366857142857
Beck Grove Dba La Vigne Organics,3320 Reche Rd.,California,0,1,0,0,33.367216,-117.190805
Beck Valley Organic Farm Inc,375 Reist Rd.,Pennsylvania,1,0,0,0,40.317667,-76.480063
Becka's Grove,1485 Chandelle Lane,California,0,1,0,0,33.396953,-117.231137
Becker Farms LLC,6146 Unionville Rd,Michigan,0,0,1,0,43.722639,-83.445787
Beck's Superior Hybrids Inc,11250 Federal Ave,Iowa,0,0,1,0,41.6906774,-93.2553085
"Beck's Superior Hybrids, Inc.",14087 N 1800 East Road,Illinois,0,0,1,0,40.833550646682575,-88.58501481261456
Bedtke Dairy,11418 County Road 41,Minnesota,1,0,0,0,44.18340122920776,-92.0511116609689
Bedtke Farm,11443 County Road 116,Minnesota,0,0,1,0,44.17122502761555,-92.0333950114966
Bee Heaven Farm,19000 SW 264th St.,Florida,0,1,0,0,25.520182499999997,-80.50070554597289
Beech Hill Farm,171 Beech Hill Rd,Maine,0,1,0,0,44.334782000000004,-68.35205453459119
Beech Hill Preserve Coastal Mountains Land Trust,316 Beech Hill Rd,Maine,0,1,0,0,44.3370109,-68.9984822
Beech-Born Farm,590 Warren Road,New York,1,0,0,0,42.32859256316615,-75.0073942359439
Beechy Family Farm,825 W 450 S,Indiana,1,0,0,0,40.763581914907235,-85.4619322010893
Beehive Botanicals Inc,16297 W Nursery Rd,Wisconsin,1,1,0,0,45.997037206047594,-91.5077959971519
Behrensbrook Farms,22493 Holland Rd,Wisconsin,0,0,1,0,44.566714,-88.100006
Beiler Family Farm,1604 Wheatland School Road,Pennsylvania,1,1,0,0,40.00035611411653,-76.22182973154902
Beiler Poultry Farm,645 Cardinal Road,Pennsylvania,1,0,0,0,40.0857334,-75.1226092
"Beiler, Jacob",1043 Mimms Road,Kentucky,1,0,0,0,36.72124250758246,-87.30044796219224
"Beiler, John",1221 Mimms Road,Kentucky,1,0,0,0,36.72292244784175,-87.30640050662251
Beiler's Farm,225A N Hollander Rd.,Pennsylvania,1,0,0,0,40.05480744323261,-76.1020768003989
"Beiter & Sons' Farm, LLC",5363 East Creek Road,New York,1,0,0,0,42.7447895,-78.4880325
"Bel Lavoro, LLC Dba Bel Lavoro Olive Orchards, Steep Echo",119 W. Mountain Drive,California,0,1,0,0,34.454171,-119.672732
Bel Lehr,12901 Packing House Rd.,California,0,1,0,0,34.434804,-119.61063
Belcampo,4720 Scarface Road,California,0,1,0,0,41.579355090343334,-122.79948600956135
Belfast Bay Wild Blueberries,365 Belmont Ave.,Maine,0,1,0,0,44.4099943,-69.0891737
Belfast Blueberry Cooperative & 3 Streams Farm,209 Back Belmont Rd.,Maine,0,1,1,0,44.387728,-69.0658317
Belgium Farm,4574 Walnut Ave,Iowa,0,0,1,0,43.423368,-92.593648
Belk Farms LLC,67000 Hayes Street,California,0,1,0,0,33.562177,-116.026422
Bell Flavors And Fragrances,500 Academy Drive,Illinois,1,1,1,0,42.14453,-87.85693
"Bell, Nicholas",351 Swanson Road,North Carolina,0,0,1,0,35.4259944,-81.31455054948671
"Bell, Ricky",351 Swanson Rd,North Carolina,0,0,1,0,35.4259944,-81.31455054948671
"Bella Bolettino, LLC Dba Bella Bolettino Farms",3857 North River Road,Colorado,0,1,0,0,39.115117,-108.338998
Bella Ridge Farm,17555 Taylor Lane,California,0,1,0,0,36.8135215,-119.6419529
Bellair Farm CSA,5375 Bellair Farm,Virginia,0,1,0,0,37.890604792170485,-78.51870220206727
Bellamy Creek Ranch,5426 Ellison Rd,Michigan,0,0,1,0,43.01651549352287,-85.19302652165119
Bell-Carter Packaging,4207 Finch Rd.,California,1,1,0,0,37.62516860458453,-120.91773569914041
Belle Vue Dairy,780 Sweet Springs Valley rd,West Virginia,1,0,0,0,37.630914,-80.241036
Belo's Organic Farm,25115 Clark Ave.,California,1,0,0,0,39.825886142857144,-122.10323528571429
Ben & Jake Meister,700 W. Ash St.,Illinois,0,0,1,0,38.013207,-89.623609
Ben A. Miller,2415 Tr 112,Ohio,1,0,0,0,40.264524,-83.496856
Ben And Christina Niehues Farms,1242 Q Rd.,Kansas,0,0,1,0,39.725459,-95.939191
Ben E. Byler,11580 Cowman Road,Ohio,1,0,1,0,39.294187,-83.472736
Ben Girod Jr.,8050 Weaver Road,New York,1,0,1,0,42.4472045,-78.1939915
Ben Grayson Ellis Jr. DBA Hopeulikit Farms,4195 Williams Rd,Georgia,0,1,0,0,30.70407792309677,-83.25515720549076
Ben Hostetler,2157 Huth Sayer Road,New York,1,0,0,0,42.96798053640304,-75.5169720052967
Ben K. Fisher,785 Strasburg Road,Pennsylvania,1,1,0,0,39.98415781963514,-76.0828138995128
Ben L. Stoltzfus,453 Paradise Road,Pennsylvania,1,0,0,0,40.255942019713736,-76.13618758102643
Ben M. Borntreger,30312 Kirkwood Ave,Wisconsin,1,0,0,0,43.872078,-90.393482
Ben Noonan,5403 South 150 West,Indiana,0,0,1,0,40.34071299791952,-86.93307712108822
Ben Penner Farms,1100 W South St.,Minnesota,0,0,1,0,44.615826,-93.782426
Ben S Borntreger,E 10816 Shortcut Rd,Wisconsin,1,0,1,0,44.470571,-88.119641
Ben Turner,1057 Elizabethtown Road,New York,1,1,0,0,42.973567,-75.07400668181819
Ben Weaver,8063 Evans Road,New York,1,0,0,0,40.6879236,-74.0146338
"Ben-Co Holsteins, LLC Dba Red Creek Farm",218 Schad Road,New York,1,0,0,0,42.865336462471596,-78.43243658129542
BENDER FARMS,32050 Hwy 120,Missouri,0,0,1,0,38.4810191,-91.3182018
Bender Organic Farms,8207 144th St.,Nebraska,0,0,1,0,40.91137907526881,-96.139836
Benedict Farms,732 Bear Gulch Road,New York,1,0,0,0,42.614230680473675,-74.57806455606385
Benedict Petersheim,1992 200Th Ave,Iowa,0,0,1,0,42.05078354350636,-90.66549763735762
Benjamin Abbas,1038 180th Street,Iowa,0,0,1,0,41.91715819898313,-90.89023646358848
Benjamin and Laura Wells-Tolley dba Chase Hill Farm,74 Chase Hill Road,Massachusetts,1,0,0,0,42.682180349999996,-72.30002652943547
Benjamin B. Allgyer Farm,20125 Sunny Lane,Wisconsin,1,0,0,0,42.789072679910284,-90.39757139656189
Benjamin D. Wengerd,199 County Road 18,New York,1,0,1,0,44.43288544937517,-75.35374974634375
Benjamin Eichelberger,310 Shady Road,Pennsylvania,0,0,1,0,41.06345624589047,-76.9392958422265
Benjamin J. Detweiler,37 Cotter Road,New York,1,0,0,0,41.641935663751184,-74.0511508038821
Benjamin J. Wagler,732 Pyrites Russell Rd,New York,1,0,0,0,44.474418057044595,-75.15693733069443
Benjamin Organics LLC,21749 Get Around Rd,Minnesota,1,0,0,0,47.00274625150745,-94.91328030933784
Benjamin R. Raber,1198 145th St,Iowa,0,0,1,0,41.797527,-92.276893
Bennett Dairy Inc,1173 KoKomo Rd,Mississippi,1,0,0,0,31.262388194937426,-90.02404453469482
Bennett Farm,11742 Short Tract Rd,New York,0,1,0,0,42.576412,-77.9887188
Bennie B. Lapp,125A South Belmont Road,Pennsylvania,0,1,0,0,39.984153,-76.097286
Bennie J. Byler,2570 County Route 37,New York,1,0,0,0,42.183240589091334,-74.5008027242693
Bennie M Gingerich,4772 Unity Ave,Iowa,0,0,1,0,42.5096805,-96.3677128
Bennie Yoder,2894 Cedar Rd,Iowa,0,0,1,0,42.952285,-91.6430771
Bensvue Farms LLC,295 Lansingville Rd,New York,1,0,0,0,42.577355,-76.54963373472319
Benuel E. Beiler,340 Maple Shade Road,Pennsylvania,1,0,0,0,39.86416778845065,-76.05680439346119
Benuel Ebersol,1771 Furniss Road,Pennsylvania,1,0,0,0,39.818925,-76.257675
Benuel Esh,170 Grubbs Corner Road,Pennsylvania,1,0,0,0,39.736957710339084,-76.20790778303012
Benuel H. Stoltzfus,8040 Willow Grove Rd,New York,1,1,0,0,43.823552084722785,-75.56827241095137
Benuel J. Stoltzfus,7484 Rice Road,New York,1,0,0,0,42.97846177709879,-76.642888527156
Benuel K. Peachey,9202 Front Mountain Road,Pennsylvania,1,0,0,0,40.507273073181565,-77.83064023729679
Benuel King,450 Solanco Road,Pennsylvania,0,1,0,0,39.873061333143006,-76.14438576534401
Benuel King,352 Gridley Rd,Pennsylvania,1,0,0,0,40.0205702098781,-76.22236102357863
Benuel M. King,792 Fords Bush Road,New York,1,0,0,0,42.97512729680702,-74.7376593535389
Benuel R. Stoltzfus,7830 Lancaster Ave.,Pennsylvania,1,0,0,0,40.442478,-76.30145
Benziger Winery,1883 London Ranch Rd.,California,0,1,0,0,38.363298536421865,-122.53323432288109
Beretta Dairy,3215 Llano Rd.,California,1,0,0,0,34.4909853,-117.344205
Berg Harvest LLC,40467 Mathews Lane,Colorado,0,1,0,0,38.86487720625618,-107.6014664165372
"Bergman Family Vineyards, LLC",3285 St. Helena Highway North,California,0,1,0,0,38.33765989826473,-122.32258019320625
Berkeley Olive Grove 1913 And Terra Fortunata,8 Rocky Drive,California,0,1,0,0,39.5948611122449,-121.61141644897958
Berle Farm,319 Beechwood Rd.,New York,1,1,0,0,42.907557358437316,-73.28321300700644
Berlo Farm,283 McQuaide Dr.,Pennsylvania,1,0,0,0,40.4712276746762,-79.54338736810172
Bernard Chambers,105 White Road,New York,1,0,0,0,44.775168,-74.80252853571429
BERNARD HAND,12284 E. 21st Rd.,Illinois,0,0,1,0,39.18407059146708,-89.30698935926091
Bernard Perry,9849 McKinstry Rd,New York,1,0,0,0,41.6896662,-74.1988089
Bernier Farms,1720 Canyon Rd.,California,0,1,0,0,34.12631221313389,-117.26639
"Berries Northwest, LLC","32633 Cooper Rd., NE",Oregon,0,1,0,0,45.7899932,-119.1740743
BERRY BEST FARM,12462 FM 2588,Texas,0,1,0,0,30.152589,-93.74254
Berry Brook Farm,2369 Back River Road,New York,0,1,0,0,42.22638801158709,-74.96140124525726
Berry Farms,13006 Woodlawn Circle,Georgia,0,1,1,0,33.827166,-84.2479986
Berry Fresh LLC,19640 S. Rancho Way,California,0,1,0,0,33.84931724503671,-118.22277925165443
"Berry Fresh, LLC",146 South Delsea Drive,New Jersey,0,1,0,0,39.48541352440742,-75.04328218503021
Berry Hollow Farm,1575 Luxemburg Rd.,Pennsylvania,1,0,0,0,40.638473,-76.74025
Berry Licious,1100 Highway 25,California,0,1,0,0,32.8778403,-117.22988685622568
Berry Organic Farms,187 Munger Lane,Connecticut,0,1,0,0,41.64866553130483,-73.21266229110337
"Berry Patch Farms, LLC",13785 Potomac Street,Colorado,0,1,0,0,39.94667122229355,-104.82818862929592
Berryman Farms LLC,Levee Rd & 6th St.,California,0,1,0,0,32.7789,-114.555858
Bert Paris,W3443 County Road W,Wisconsin,1,0,0,0,44.3093624,-89.5277463
"Bertagna Orchards, Inc.",3329 Hegan Ln.,California,0,1,0,0,39.68925680701754,-121.83994443859649
Berville Farms LLC,26501 Bordman Rd,Michigan,0,1,0,0,42.89537849473687,-82.8518585137899
Berwanger Farms,15416 Highway 87,Missouri,0,0,1,0,37.1791074,-93.4649966
Besecker Farms,5136 Hogpath Rd,Ohio,0,0,1,0,40.04827648776527,-84.61206875370458
"Beshore Specialty Produce, LLC",411 Gurtner Road,Pennsylvania,0,1,0,0,40.19197606334156,-76.8523080083743
Best Express Foods,1730 Sabre St.,California,0,1,0,0,37.65613865,-122.12807747362487
Beth Mcconnon,2856 150th Ave S,Minnesota,0,0,1,0,46.6740411452325,-96.73556142260742
Bethel Farm,36336 Finger Road,North Carolina,1,0,0,0,35.40053101824606,-80.34867406524587
Bethel Livestock,522 Happy Lane,New York,1,0,0,0,42.474524,-76.536867
Bethel Organic Acres,7236 Veterans Memorial Hwy,Kentucky,1,0,0,0,37.581984,-85.2709403
Betsy Dahl (DBA Tara Run Farms),47213 290th Ave,Iowa,0,0,1,0,41.875027,-90.529242
Betteravia Farms/Bonipak,1850 West Stowell Rd.,California,0,1,0,0,34.9357145,-120.47718554866952
Betterbody Foods And Nutrition,1762 West 20 South #100,Utah,1,1,0,0,40.3639334,-111.7593493
Bettina - Bee Green Farm,41801 North Fork Drive,California,0,1,0,0,36.440986,-118.906929
"Beyercrest, LLC",18622 Dixie Drive,Minnesota,1,0,1,0,44.04215223381195,-91.91565611092298
Bezold Farms,2235 Smith Rd,Ohio,0,1,0,0,41.14068462271446,-81.58989832964154
Bhavana Berries LLC,4395 Hortons Lane,New York,0,1,0,0,41.073179374285864,-72.43851284141891
"Bickford Farms, Inc. Dba Bickford Organics And Meadowlark Organics",3630 Ridgevue Road,Wisconsin,0,0,1,0,43.0012644,-90.0151783
Bierlein Gamebirds And Farm,2733 S Quanicassee Rd,Michigan,0,0,1,0,43.43014651758794,-83.66014037688443
"Big Basin Vineyards, LLC Dba Big Basin Vineyards",830 Memory Lane,California,0,1,0,0,37.1819077,-122.1598465
"Big Bear Organics
Millard L. Hollingshead",245 Swartzville Rd,Pennsylvania,0,0,1,0,40.2331483,-76.0782763
"Big Branch Valley Farm, LLC",302 Loughter Road,Georgia,0,1,0,0,34.775038,-83.8688135
Big B's Juices / Big B's Hard Cider / Delicious Orchards,386 High Street,Colorado,0,1,0,0,37.165163645732676,-104.50792785543902
"Big Fresh Cold Storage, LLC",10800 S. Sugar Road,Texas,0,1,0,0,26.2779548,-98.1821808
Big Mesa Farm,26020 Comptche Ukiah Rd.,California,0,1,0,0,39.249129,-123.532119
Big River Chestnuts,195 River Road,Massachusetts,0,1,0,0,42.68416095,-71.2168114119154
"Big River, Ltd.",44850 Comptche Ukiah Road,California,0,1,0,0,39.29983594755612,-123.7898646679254
"Big Tree Naturals, LLC Dba Kaibae",9 E Mission St.,California,0,1,0,0,34.431343999999996,-119.7145645
Big Tree Organic Farms,1160 W. Glenwood,California,1,0,0,0,37.1082805,-121.9866264
Big Valley Farms LLC,7101 W. Lawrence Hwy,Michigan,0,0,1,0,42.568194,-84.914936
Big Valley Feed & Grain Co.,37 Young Lane,Pennsylvania,0,0,1,0,41.153117244897956,-77.36358951020408
Bill & Dan Prosperi,23506 Ave. 10,California,0,1,0,0,36.89472593642444,-120.1192665281483
Bill Bolton,176 Ivey bolton Road,North Carolina,0,0,1,0,36.434325774390125,-78.13556832982536
Bill Kuhfuss,W1759 Prairie Dr.,Wisconsin,0,0,1,0,42.5602911,-88.1663402
Billing Farm,23775 Avenue 7 1/2,California,0,1,0,0,36.85858211266382,-120.11510320172235
Billy Trew,389 York Road,Tennessee,0,0,1,0,36.154730029962394,-83.63216248120129
Billy's Farm,8430 Dillard Road,California,0,1,0,0,38.45108288888889,-121.18450319444445
Bilyk Farms,31510 Laurel Ridge,California,0,1,0,0,37.5318813,-122.3077469
Bindle Farm,510 Waning Rd.,Maine,0,1,0,0,44.5510621,-69.3496612
Bio Way Farm LLC,197 Bio Way,South Carolina,0,1,0,0,34.468307,-82.26077
Bioactiv Foods,29244 482nd Ave,South Dakota,0,1,0,0,43.141688,-96.568934
Biophilia Organic Farm,211 Manor Ln,New York,0,1,0,0,40.9002396733548,-73.81021470788691
Birch Lane Acres,533 Hayes Rd,New York,1,0,1,0,42.511518499999994,-76.945678
Bird Creek Farms,282 Grindstone Rd,Michigan,0,1,0,0,44.040802516129034,-82.9869615967742
"Bird Rock Vineyards, LLC",4047 S. Vineland Rd.,California,0,1,0,0,35.320013758278144,-118.89650392384107
Birdskog Farm,1448 Terry Hill Rd,New York,0,1,0,0,42.3036315,-76.751965
Birdsong Farm,26041 County Road 681,Michigan,0,1,0,0,42.33052461109267,-86.10928887648421
Birdsong Orchards,613 Lakeview Rd.,California,0,1,0,0,34.89459248648649,-120.4303704864865
BIRKEY FARM,2185 Hopedale Rd.,Illinois,0,0,1,0,40.353772,-89.397356
Bishop Family Farms,6362 Township Highway 80,Ohio,0,0,1,0,39.735004,-81.422387
"Bissette Farms, Inc",705 E Gannon Ave,North Carolina,0,0,1,0,35.82835178267884,-78.29957641222474
Bittner-Singer Orchards,6620 Lake Rd,New York,0,1,0,0,39.87284597837467,-76.69271609397015
BJE Farms,215 Kreamer Ave,Pennsylvania,0,0,1,0,40.8691042,-76.7846368
Black and Blue Farms,12588 Red Arrow HIghway,Michigan,0,1,0,0,41.89117733333333,-86.60543200000001
Black Bear Dairy,S-769 Dell Rd,Wisconsin,1,0,1,0,42.9894202,-88.9011547
Black Bear Orchards,3824 Highline Canal Rd,Colorado,0,1,0,0,39.1161082419881,-108.34430997908268
Black Creek - Saputo Cheese USA,307 North Clark St,Wisconsin,1,0,0,0,44.2649253602077,-88.40985955493775
Black Fox Farm LLC,29934 Stingley Gulch Rd,Colorado,0,1,0,0,38.81784656599107,-107.80056838746845
"Black Hollow Dairy, LLC",4219 Black Hollow Road,Virginia,1,0,0,0,37.13109374042046,-80.74522014347532
Black Kettle Farm,1391 S. Waterboro Rd.,Maine,0,1,0,0,43.5332245,-70.6966397
Black Sheep Finds,3000 Sweeney Rd.,California,0,1,0,0,34.630066,-120.383642
BLACKACRE FARMS,658 County Hwy 16,Illinois,0,0,1,0,38.23015091259367,-89.55026403396818
Blackberry Meadows / Urban Homesteaders LLC,7115 Ridge Road,Pennsylvania,0,1,0,0,40.462503904857954,-75.54067492958993
Blackbird Rise,479 Jones Rd.,Maine,1,1,0,0,44.3706765,-69.4682561
Blackbrook Farm,1150 35th Avenue,Wisconsin,0,1,0,0,45.25946418405883,-92.398147820331
Black-Crowe Vineyards,7565 East Belmont Avenue,California,0,1,0,0,36.75018364254432,-119.6535273437617
"Blackjack Farms De La Costa Central, Inc.",2385 A St.,California,0,1,0,0,35.38080182441535,-119.02941432090797
Blaine Weber,2550 470th St,Minnesota,0,0,1,0,47.37597740419862,-96.06721024204471
Blair Ranch LLC,86555 Landfill Road,California,0,1,0,0,33.72938968256911,-116.15738880970763
Blake Family Organic Farm,1972 Highway 76,Iowa,1,0,1,0,43.1766252,-91.3171134
BLANCO CREEK FARMS,4430 DIRECTOR DR,Texas,0,1,0,0,29.4389612244898,-98.40809304081633
BLAND DISTRIBUTION SERVICES,2243 NORTH GOOLIE ROAD,Texas,0,1,0,0,26.192362,-98.056277
Blessed Farms,0 Via Mejor,California,0,1,0,0,32.6657549,-115.4955695
Blessing Acres Dairy,18441 Cooke Road,Ohio,1,0,0,0,40.508532,-82.614952
Blickenstaff Farms,57242 Minnesota Street,Minnesota,1,0,1,0,44.1642833,-94.0073572
Blooming Acres Farm,5054 W Fountain City Pike,Indiana,1,0,1,0,39.954337,-84.930558
Blooming Glen Farm,98 Moyer Road,Pennsylvania,0,1,0,0,40.159073,-75.431074
Blooming Hill Dairy,4580 Tr 184,Ohio,1,0,0,0,40.850612,-83.585604
"Blossom Bluff Orchards, Inc.",17564 East Clayton,California,0,1,0,0,37.9410341,-121.9357925
Blossom Family Farm,18105 Streetcar Road,Indiana,1,0,0,0,39.38772100927234,-85.11723474917716
Blossom Hill Farm,118 Stuart Run Rd,Pennsylvania,0,1,0,0,39.87346119722728,-76.12823754176911
"Blubay Trading, LLC",14015 Crenshaw Blvd. #11,California,0,1,0,0,33.795241,-118.3286784
Blue Barrel Farm,2657 Clay Hollow Road,Wisconsin,0,1,0,0,42.64336711469879,-90.55188276364474
Blue Barrens Farm,11 High Street,Maine,0,1,0,0,44.317139,-69.7845297
Blue Bell Farm,767 Carding Machine Rd,Maine,0,1,0,0,44.0820432,-69.8298462
Blue Branch Inc. dba Drowsy Dragon Farm,97 Old State Road,Massachusetts,0,1,0,0,42.58441595,-72.4592986996822
Blue Fruit Farm,31762 Wiscoy Ridge Rd,Minnesota,0,1,0,0,43.88872108445658,-91.64488392860149
Blue Heron Farm,2739 Rumsey Canyon Rd.,California,0,1,0,0,38.8942169198696,-122.24647401009578
Blue Heron Farm,1641 Shaw Road,New York,0,1,0,0,42.6017185,-76.85647449999999
Blue Heron Orchard,32974 220th Street,Missouri,0,1,0,0,40.07729647407519,-91.51830266122006
Blue Hill Berry Co.,95 Dunbar Rd.,Maine,0,1,0,0,44.4629091,-68.746336
Blue House Farm,5000 Pescadero Creek Rd.,California,0,1,0,0,37.25825390107265,-122.3412025075782
"Blue Lily Organics, LLC",1935 W Maya Way,Arizona,0,1,0,0,33.72908693269244,-112.10147285074763
Blue Moon Community Farm LLC,3856 Schneider Dr.,Wisconsin,0,1,0,0,42.96131842386312,-89.29044466537127
Blue Moon Organics,2835 County Line Rd,New York,0,1,0,0,42.3814305,-76.92293599999999
Blue Mountain Academy Farm,2363 Mountain Road,Pennsylvania,0,1,1,0,40.861220466860374,-76.36833531629321
"Blue Pacific Flavors, Inc.",1354 S Marion Court,California,1,1,0,0,34.00209718037597,-117.94479517895176
Blue Ridge Farm,43660 County Road W,Wisconsin,0,0,1,0,44.3093624,-89.5277463
Blue River Organic Seeds,2326 230th St,Iowa,0,0,1,0,41.84462089172227,-90.24115359339359
Blue Sky Farm,508 Weir Cove Rd,Maine,0,1,0,0,44.3163761,-68.80507215788394
Blue Sky Sunny Day Farm LLC,3900 Charleston Highway,South Carolina,0,1,0,0,32.878035,-81.046371
Blue Sky Vintners LLC Dba Laurel Glen Vineyard,6609 Sonoma Mountain Road,California,0,1,0,0,38.366804,-122.598524
Blue Skye Farms,18675 State Highway 66,Minnesota,0,0,1,0,44.7851496,-93.1256007
Blue Truck Organics LLC,309 Weaver Loop,South Carolina,0,1,0,0,33.297520927373064,-79.3265134024822
Blueberry Heritage Farms,13313 Fillmore Street,Michigan,0,1,0,0,42.943124011704164,-86.11526026404967
Blueberry Hill Organic Farm,314 Margaret Henry Rd.,Connecticut,0,1,0,0,41.77189875877307,-71.82147246610823
Bluebird Hill Farm,68 Bluebird Hill Rd.,Maine,0,1,0,0,44.2316878,-69.5062328
"Bluebird Organic Fruit Co., LLC.",3462 C 3/4 Road,Colorado,0,1,0,0,39.059649,-108.41079218728945
Blue-Collar Holsteins,3308 County H,Wisconsin,1,0,1,0,43.05018005,-87.91823074999999
"BLUEGOLD BLUEBERRY FARM, INC.",5909 102nd Ave,Michigan,0,1,0,0,42.4335032191846,-86.12230796234921
"Bluegrass Dairy & Food, Inc",1117 Cleveland Ave,Kentucky,1,0,0,0,39.07386807297658,-84.53377143210969
"Bluegrass Farms Of Ohio, Inc",9768 Milledgeville-Jeffersonville Rd,Ohio,0,0,1,0,39.630276,-83.567785
Blueloon Farm,13085 N. Elyria Rd.,Ohio,1,0,0,0,40.95747354627888,-82.10935936085924
Bluestem Farms LLC,Round Top Road,Maryland,0,0,1,0,39.2244757,-75.9987394
Blue-Zee Farm,652 Front Ridge Rd.,Maine,0,1,0,0,44.4897487,-68.6428449
"Blumenberry Farms, LLC",2151 Dog Kennel Rd,Florida,0,1,0,0,27.3511602,-82.3834004
"Blustarr Farms, Inc.",6087 Neals Mill Rd.,Georgia,0,1,0,0,33.3469527092639,-82.35141980486685
BMC Farms Inc,906 Blackiston Road,Delaware,0,0,1,0,39.2483162,-75.6851806
BNH Enterprises LLC,1321 Mount Hebron Rd,North Carolina,0,1,0,0,35.567454374777114,-82.20516436645615
"Boardman Foods, Inc.",71320 Columbia Blvd,Oregon,0,1,0,0,45.9188047,-119.2950404
Bob Spenner,1524 Hwy 32,Nebraska,0,0,1,0,41.858255,-97.794663
"Bob Swanson Ranch, LLC",8188 Southside Rd,California,0,1,0,0,36.7863479,-121.330272
"Bob's Red Mill Natural Foods, Inc.",13521 SE Pheasant Court,Oregon,0,1,1,0,45.42572785,-122.59108609586953
"BOECKNER ENTERPRISES, INC.",81248 496th Ave,Nebraska,0,0,1,0,41.59393204367131,-98.55943125598968
Boerson Farm LLC,W995 Brooklyn J Rd,Wisconsin,0,1,0,0,43.8704399,-88.9184438
Boghosian Organic Farms,7919 Walters,California,0,1,0,0,34.0969321,-117.7177039
"Bokisch, Inc.",26680 North Mackville Road,California,0,1,0,0,38.23241996292888,-121.08866748258079
Bo'lait Farm,414 West Washington Rd.,Maine,1,0,0,0,44.2797822,-69.4364608
Bolthouse,7200 E. Brundage Ln.,California,0,1,0,0,35.35436927102804,-118.93129174766355
"Bon Pack Farms, Inc.",18600 Avenue 17 1/2,California,0,1,0,0,37.00362025672312,-120.2042556269077
"Bond, Todd",36278 Wilfred Bond Rd,Louisiana,1,0,0,0,30.834596507227936,-90.2828165613176
Bonduelle USA Inc.,15 Church Street,New York,0,1,0,0,40.764365350000006,-73.01560858910298
Bonduelle USA Inc.,40 Stevens Street,New York,0,1,0,0,43.0630735,-78.27511563670657
Bonsall Farms Inc.,1148 Ormsby St. / 2461 East Vista Way; Vista,California,0,1,0,0,33.2471316,-117.2295826
Bonsall Farms Inc.,1148 Ormsby St.,California,0,1,0,0,33.2471316,-117.2295826
Bontrager Family Farm,2205 W 700 S,Indiana,1,0,0,0,41.539983908045976,-85.46636821839081
Bontrager Farm,14534 County Rd 227,Ohio,0,0,1,0,40.60633136797623,-83.46744178319176
"Bontrager, Paul",W 4683 West Slab City Road,Wisconsin,1,0,0,0,44.7205377,-88.4570067
Bontrager's Dairy,601 Coveytown Road,New York,1,0,0,0,44.9453285,-74.239958
Books Rainbow View,S 6520 County Rd J,Wisconsin,1,0,1,0,44.697383,-87.41391422019362
Boone County Organics,475 320th Street,Iowa,0,1,0,0,41.627380775510204,-91.28370877551019
Borba Farms,68 Corey Road,California,0,1,0,0,36.5917066189841,-121.60417622549255
Borbonus Family Farm,526 Stoney Run Road,Pennsylvania,1,0,1,0,40.42166257338932,-79.299630671656
"Borden Farms, LLC",51245 Carnation Road,Colorado,0,1,0,0,38.635779652312934,-108.12600721258475
Boren Family Partnership,10129 South Jameson Avenue,California,0,1,0,0,36.58885976856351,-119.989654980866
Borkholder Family Farm,60 W 350 S,Indiana,1,0,0,0,40.699482042653145,-86.87349675524415
Borkholder Family Farm,29262 Wagner Road,Michigan,1,0,0,0,41.91191818338109,-85.37841493409742
Born Free Farm,98 Harper Field Rd.,Maine,0,1,0,0,44.7947872,-68.313632
Borntrager Farms,325 Audrain Road 155,Missouri,0,0,1,0,39.306557,-92.243305
Borntreger Farms,40913 275th St,Missouri,0,0,1,0,40.32206217171717,-94.61357953535354
Borntreger Farms,N110 Pioneer Road,Wisconsin,0,0,1,0,45.6392052,-91.68225128666117
Borys Polon DBA Premium Co-Pack,19 Union Street,New York,0,1,0,0,42.942271500000004,-76.57570100000001
Bostock North America,5619 Scotts Valley RD,California,0,1,0,0,39.10838265403593,-122.97512752616036
Boston Fresh LLC,1020 W. Chestnut St.,Massachusetts,0,1,0,0,42.05347555,-71.05791283726828
Bostrom Farm,701 Colrain Road,Massachusetts,1,0,0,0,42.617409,-72.632847
Boudreaux Family Trust,2614 Scott's Right of Way,California,0,1,0,0,38.432459024919176,-122.84839090238646
Boughan Farms,5119 Barnes Rd,Michigan,0,0,1,0,43.26648412390815,-83.54484376410883
"Boulder Orchard Cider, LLC",14254 North 95th Street,Colorado,0,1,0,0,40.231586963816994,-105.1309493173081
"Boulder Ridge Vineyard, LLC Dba Boulder Ridge",6450 Santa Rosa Creek Rd.,California,0,1,0,0,35.5809658,-120.99800442631005
Bountiful Meadow Farm,2650 State Route 364,New York,1,1,0,0,42.67463888295213,-77.08336240257675
Bountiful Verona,2801 Redemeyer Rd.,California,0,1,0,0,39.186604,-123.193147
Bouvet Exotics,20 Landing Circle #306,California,0,1,0,0,39.775476999999995,-121.8406976150421
Bowdoin Organic Garden,52 Harpswell Road,Maine,0,1,0,0,43.905927199999994,-69.95800037156
"Bowles Farming Company, Inc.",11609 South Hereford Road,California,0,1,0,0,37.1188417,-120.7446506
Bowling Family Farms,5885 Grovedell St,Ohio,0,0,1,0,40.674077323598965,-81.29613021986944
"Bowman Andros Products, LLC",10119 Old Valley Pike,Virginia,0,1,0,0,38.76709060402685,-78.62003184563758
Box R Ranch LLC,16894 Ave. 315,California,0,1,0,0,36.36147012244898,-119.19574242857142
BoxCap Grove,5001 San Jacinto Circle East,California,0,1,0,0,33.8858066,-117.5538689
"Boyd Station Foods, LLC",557 Elysburg Rd,Pennsylvania,0,0,1,0,40.89747183813983,-76.5756254270988
"Boyd Station, LLC",557 Elysburg Road,Pennsylvania,0,0,1,0,40.89747183813983,-76.5756254270988
Boyer Farms,39686 Daily Road,California,0,1,0,0,33.434276,-117.302993
Boyer Ranch,44255 Calle Vista Lejos,California,0,1,0,0,33.483375188299284,-117.18304258686179
Bozzano Olive Ranch,6880 East Navone Road,California,0,1,0,0,38.00305541654402,-121.21601138206506
Brack Farms,611 N. Siskiyou Ave.,California,0,1,0,0,36.74401028588378,-120.07821737839085
Brad Edelman Farm,1738 192nd Rd,Kansas,0,0,1,0,39.91348548035043,-95.92643275820794
Brad Klitzke,750 Weston Ridge Pkwy,Minnesota,0,0,1,0,44.818589763216266,-93.58953177221048
Brad Midtling,2891 US Highway 12,Wisconsin,1,0,0,0,44.95913411804128,-92.22193059583917
Brad Taylor,3320 Taft Avenue,Iowa,0,0,1,0,43.245094683748896,-93.59696700706762
Bradbury Organic Farms Dba Organicado,460 Old Ranch Road,California,0,1,0,0,34.150253,-117.973528
Brae Maple Farm,233 N Union Rd.,Maine,0,1,0,0,44.2216826,-69.2987418
"Braga Organic Farms, Inc.",2592 Mitchell Court,California,1,0,0,0,38.1356476,-122.2447367
Bragg Homestead LLC,3384 W River Rd.,Maine,1,0,0,0,44.4639642,-69.6953209
Bram Adki,6244 State Highway 29,Wisconsin,1,0,0,0,44.8820856,-91.9476541
Brammeier Farms,1993 335th St,Iowa,0,0,1,0,41.520949755102045,-95.91894024489795
Branch Mill Organic Farm,2815 Branch Mill Rd.,California,0,1,0,0,35.1502724266247,-120.52864569979478
"Branch, Steven",29119 Luke Pace Rd,Louisiana,1,0,0,0,30.942706,-89.981411
"Brandenburg, Larry",5686 Finchville Road,Kentucky,0,1,0,0,38.111841986919494,-85.236673884676
Brandon Ross Dba Ella Bella Farm,469 Rapp Rd.,Oregon,0,1,0,0,42.241436821413636,-122.77860055155665
Brandon Teske,13406 1400 North Avenue,Illinois,0,0,1,0,41.35086938,-89.59852146
Brandon West,9101 Fargo Ave.,California,0,1,0,0,36.357173,-119.622025
"Brandt Farms, Inc.",6040 Ave. 430,California,0,1,0,0,36.571759118962085,-119.43886016596326
Brandy Run Farms,118 Todd Rd.,Pennsylvania,1,0,0,0,40.10986423241244,-75.90212313786101
"Brankley Farm, Inc",599 Brankley Road,Virginia,0,0,1,0,36.745485,-78.557154
Brant's Hilltop Dairy Farm,3116 Westhill Road,New York,1,0,0,0,42.8085109,-74.008699
Braswell Milling,105 East Cross Street,North Carolina,0,0,1,0,35.96868083409663,-77.96670596956722
Bratt Farms,7772 Tater Rd,New York,1,0,1,0,43.146634,-76.462582
BRAWNER FARMS,3649 S. Hanover Saluda Rd.,Indiana,1,0,1,0,38.680269,-85.480268
Brawny Inc. DBA Bueno Bean,4681 Road 13.5 SW,Washington,0,1,0,0,46.89143,-119.660886
Breezy Acres,28040 Omega Rd.,Wisconsin,1,0,0,0,43.76722834319354,-90.72084975540172
Breezy Acres Family Farm,178 N. Loudenslager Rd.,Pennsylvania,0,0,1,0,41.29760496142374,-76.95395775370848
Breezy Hill Farm,5400 Spencer Road,New York,1,0,0,0,42.667937,-76.213307
Breezy Hill Farm,7804 Banks Rd,New York,1,0,0,0,42.529712,-78.17195602682416
"Breezy Hills Farm Of Baldwin, Inc.",1945 60th Avenue,Wisconsin,1,0,1,0,44.948927293763724,-92.4043467547379
Breezy Meadow,2457 Stumptown Road,Pennsylvania,1,0,0,0,40.054069777620505,-76.1993229126175
Breezy Meadow Farm,14862 Harrison Road,Ohio,1,0,0,0,40.695832,-81.726547
Breezy Vista,1013 SE 70th St.,Missouri,1,0,0,0,39.981249361584325,-93.4091121384565
Brenneman's Organic Farm,273 Pleasant Hill School Rd,Pennsylvania,1,0,0,0,39.7930311,-79.0787366
Brenner Ranch,5239 Hwy.193,California,0,1,0,0,33.99631825,-118.37172730499802
Brent & Danielle Hoffman,229 Strick Road,Pennsylvania,0,0,1,0,41.039259,-76.747352
Brent Hofmeyer,3321 Marsh Ave,Iowa,0,0,1,0,41.864690817637076,-92.99981477923671
Brent Maynard,2226 County House Road,New York,0,1,0,0,42.880548857142855,-76.81493069387756
Brent Priebe Organics,5279 County 11 Blvd,Minnesota,0,0,1,0,44.21148258232932,-92.9363762248996
Brereton Family Vineyard,18580 Lomita Ave.,California,0,1,0,0,38.31360016366364,-122.46955661103374
"Breslin Farms, LLC.",3449 E. 16th Road,Illinois,0,1,1,0,41.4331185,-88.855057
Brett Shields,3099 Highway P46,Iowa,0,0,1,0,42.260596,-94.184328
Brian & Kimbra Denhartog,1707 Cimarron Rd,Kansas,0,0,1,0,38.2751595,-97.61044983333333
Brian & Morgan Prigge Farm,17287 Henry Dr,Minnesota,0,0,1,0,43.88292273213047,-91.93509880991388
Brian Beckrow,15700 Geddes Rd,Michigan,0,0,1,0,43.42924290350877,-84.22669549999999
Brian Carlson,22441 East 400 North Road,Illinois,0,0,1,0,40.340922636119224,-88.83211770555818
Brian Craine,4030 1500 North Ave,Illinois,0,0,1,0,41.36488231147146,-89.779412227078
Brian E. Shively,5664 Sayles Corners Road,New York,0,0,1,0,42.7501815,-76.36823865694544
Brian Hacker,2325 W Huron Line Rd,Michigan,0,0,1,0,43.676981313131314,-83.06792118181818
Brian Henderson,3120 350th St.,Iowa,0,0,1,0,43.26982606938264,-92.60326635611676
Brian Henderson Farms,2364 Henderson Road,New York,0,0,1,0,42.6520765,-76.98556447412861
Brian Moyer,3148 James St,Pennsylvania,1,0,0,0,40.0089375,-75.0718382
Brian Pohlman,15810 Pohlman Road,Wisconsin,0,0,1,0,44.365062,-88.526672
Brian Wedig Farm,26700 Saint Peters Road,Wisconsin,1,0,0,0,42.65317586053864,-90.3422452314853
Bridgewell Agribusiness LLC,12420 SE Carpenter Drive,Oregon,1,0,1,1,45.4004789,-122.5357727
"Bright People Foods, Inc",1640 Tide Court,California,1,1,0,0,38.68086582908317,-121.74578438453604
Brightberry Farm,4262 Kennebec Rd,Maine,0,1,0,0,44.6749816,-69.0787034
Brines Farm LLC,6384 Walsh Rd,Michigan,0,1,0,0,42.41290899435114,-83.86182968656986
Brisa De Año Ranch,3100 Cabrillo Highway,California,0,1,0,0,37.5944733,-122.5053933
Broadturn Farm Inc.,388 Broadturn Rd,Maine,0,1,0,0,43.6118576,-70.4688357
Brodasi Inc. DBA Dosner Organic Farms,6480 Corvette St.,California,0,1,0,0,34.003144020408165,-118.13586467346938
Brodman Organic Farm,6409 E Twp Rd 8,Ohio,0,0,1,0,41.1224856,-83.1405006
Broekemeier Organic Farm,30706 County Road 7,Minnesota,0,0,1,0,44.49732695717603,-95.33062672914534
Broken Barb Ranch,1635 120th Street,Iowa,0,0,1,0,41.475227,-94.579596
Brook Ridge Farm LLC,136 Howitt Rd.,Maine,1,0,0,0,43.4855989,-70.6625292
Brook Run Dairy,1331 CR 168,Ohio,1,0,0,0,40.748192,-81.295199
BROOKSHIRE GROCERY COMPANY,1600 W SOUTHWEST LOOP 323,Texas,0,1,0,0,32.3028793,-95.302473
Brookside Farm,3548 Evans Road,Ohio,0,0,1,0,40.696376,-81.89663610204082
Brookside Farm,178 Barden Road,New York,1,0,0,0,42.26239378310745,-76.28943521689256
"Brothen, Mark",S 7981 Peterson Ave,Wisconsin,1,0,0,0,44.8415909,-91.4377227
Brothers International Food Corporation,1175 Lexington Ave,New York,1,1,0,0,40.7757177,-73.9581695
"Brothers Pride Produce, Inc. Dba Sigona's Fruit For Thought",961 Bing St,California,0,1,0,0,37.497086,-122.243779
"Brown Estate Vineyards, LLC Dba Brown Estate Vineyards",3233 Sage Canyon Road,California,0,1,0,0,38.503098,-122.262062
Brown Family Farm,935 County Route 28,New York,1,0,0,0,43.2972414,-73.6820004
Brown Farm,9344 W. Millington Rd.,Michigan,0,0,1,0,43.2780955,-83.3804854
"Brown, Karl",6009 Brown Road,New York,1,0,0,0,44.545671,-73.519842
"Brown, Kevin",229 County Rd. 5,New York,1,0,0,0,44.51080959993181,-75.64059759098338
"Brown, Matt",6830 High Rock Road,North Carolina,0,0,1,0,36.231635310215445,-79.57426595013244
"Brown, Patrick",6325 Blue Ridge Drive,Virginia,0,0,1,0,37.01857221099798,-79.29869555727325
Browning And Larsen,31825 Olive Orchard Road,California,0,1,0,0,37.230179832405454,-119.92288419551355
Brown's Farms,2335 State Highway 23,New York,1,0,0,0,42.30541579416996,-74.01996155464539
Browns Orchard,10944 Milarch Rd,Michigan,0,1,0,0,44.40219259296482,-86.18248669849245
"Brown's Organic Farm, LLC",2440 SW 32nd Place,Florida,0,1,0,0,25.7532006,-80.2480754
Brown's Place Farm LLC,5638 Dawson Rd,Georgia,0,1,0,0,33.422945338758716,-82.22649567631922
Brown's Poplar Ridge Orchards,11317 Erdman Rd,Michigan,0,1,0,0,44.40805548148148,-86.20220427160494
Brubacker's Organic Farm,5320 Pre-Emption Rd,New York,1,0,0,0,42.506198999999995,-76.99132156790745
"Brubaker, Caleb",3063 State Route 12-B,New York,1,0,0,0,42.858284,-75.403884
"Brubaker, James",5295 Cole St.,New York,1,0,0,0,42.98629843444014,-75.56160878524278
Bruce I. Orton,10330 Cerveza Drive,California,0,1,0,0,33.22553,-117.107714
Bruce Oakley Inc.,3700 Lincoln Ave. North,Arkansas,0,0,1,0,34.751608,-92.237332
Bruce Treadwell & Allison Treadwell,691 Johnnycake Road,New York,1,0,0,0,43.349506,-75.835667
Brucker's Organic Dairy,7758 Greenbush Road,New York,1,0,0,0,42.6444496,-74.455832
"Brush Creek Berries, LLC",1901 Brush Creek Rd.,Kentucky,0,1,0,0,38.657595201495724,-84.78659045472106
"Brush Farms 1, LLC",743 66th St.,Michigan,0,0,1,0,42.472586096774194,-86.18741490322581
"Bryan Farms, LLC",2460 South 400 East,Indiana,0,0,1,0,40.5170338324566,-85.59658303979052
Bryce Kowalzek,22184 285th Ave.,Minnesota,1,0,0,0,46.083098766994596,-94.06167089667228
Bryson Ensz,20126 419th Ave,South Dakota,0,0,1,0,44.45598985584172,-97.83342040543884
BT Farms,9306 190th St E,Minnesota,0,0,1,0,44.673341304609224,-92.92389381162324
Buchanan Farms,3710 Tuthill Road,New York,0,0,1,0,43.2366045,-78.1356145
Buchanan Hollow Nut Company,6510 Minturn Rd.,California,0,1,0,0,37.1396661,-120.274343
Bucher Farms,5285 Westside Rd.,California,1,0,0,0,34.5314092,-117.2993509
Buck Creek Acres,1171 145th St.,Iowa,0,0,1,0,41.797503015842054,-92.27381397830526
Buck Creek Family Farm,2412 S 00 EW,Indiana,1,0,0,0,41.630579,-85.424671
Buck Creek Farms,1720 W 100 S,Indiana,1,0,0,0,40.43612211726233,-85.39944552511128
Buck 'N' Bird Farm,57 Griest Road,Pennsylvania,1,0,0,0,39.74920476821292,-76.09268420592991
Buckeye Ridge Ranch,32201 Shimmins Ridge Road,California,0,1,0,0,39.53047164382271,-123.38324163830342
Buddha Teas,3305 Tyler St.,California,1,0,0,0,33.156347,-117.345914
Buena Vista Organic,420 Hall Rd.,California,0,1,0,0,34.38680112654981,-118.99004403654641
"Buenaventura Ranch, LLC",5734 Campbell Road,California,0,1,0,0,34.658395711186806,-120.3138770396302
Bug Hill Farm,502 Bug Hill Road,Massachusetts,0,1,0,0,42.5205956,-72.8233048951914
"Buitendorp Farms, LLC",6178 South Fitzgerald,Michigan,0,0,1,0,42.4107574,-83.1504723
"Bumblebeez, Inc. Dba Broll Mountain Vineyards",745 Anrey Court,California,0,1,0,0,38.12911355,-120.44777047847349
Bumbleroot Organic Farm,196 Highland Cliff Road,Maine,0,1,0,0,43.7298723,-70.3934472
Bundy Creek Farm LLC,5821 Cheningo Rd,New York,1,0,1,0,42.69185052504745,-76.03652807008734
Bunge Oils,376 West Park Drive,North Carolina,0,0,1,0,35.05505889342052,-78.91428755838044
Bunker Hill Farm,116 Felske Road,New York,0,1,0,0,42.76605519670283,-74.61691068572225
Buntz Farms,8109 County Highway N,Wisconsin,1,0,0,0,42.82643096864909,-88.88564212486743
"Burch, Ted",685 Burch Rd,North Carolina,0,1,0,0,35.11045290500045,-78.20602976873371
Burkart Farms,10279 Avenue 404,California,0,1,0,0,36.52347591804143,-119.34321368440129
Burke Hill Farm,520 Blackwoods Rd.,Maine,0,1,0,0,44.3091625,-68.203581
"Burkett's Pollination, Inc.",5391 S. Englehart Avenue,California,0,1,0,0,36.65638750308215,-119.41278773451641
Burkholder Dairy,1625 Collins Marsh Rd.,Wisconsin,1,0,1,0,44.11648748027121,-87.93297829010216
"Burkholder, James",247 E. Maple Leaf Rd.,Kentucky,0,0,1,0,38.61585339225793,-83.78012816695473
Burnette Foods Inc - East Jordan Facility,200 State Street,Michigan,0,1,0,0,42.639963875,-83.30567025
"Burnette Foods, Inc. - Hartford",87171 County Road 687,Michigan,0,1,0,0,42.217996,-86.166845
Burns Sons LLC,9922 Irish Rd,Michigan,0,0,1,0,43.23844587755102,-83.55891559183674
Burnt Meadow Nursery,25 Spring St,Maine,0,1,0,0,43.6206555,-70.3454374
"Burr Oak Gardens, LLC",W5511 County Road B,Wisconsin,0,1,0,0,44.8352228,-87.3740793
Burrows Rocky Acres Farm,5076 Lincklaen Road,New York,1,0,0,0,42.736961,-75.947962
Bush Hollow Farm,3458 James Road,Georgia,1,0,0,0,30.8413742,-83.3347522
"Bussted Farms, LLC",18968 County Road C,Wisconsin,0,0,1,0,43.7921665,-88.0081328
Busy Bee Organics,1710 County Road 600,Ohio,0,1,0,0,40.45650018260118,-81.77617353381257
Butchie's Organic Farm,36 C. Meyer Road,New York,0,1,0,0,42.882452402619705,-73.77603775018635
Buttercup Farm,1135 Scenic Trail,Pennsylvania,0,1,0,0,39.82014916804491,-76.22628801890153
Butterfield Farm,1002 Coveytown Rd,New York,1,0,0,0,44.950196000000005,-74.20215857745629
"Button & Turkovich, LLC",24604 Buckeye Rd.,California,0,1,0,0,38.58144712633198,-121.93377080090309
Button Acres,3379 Jackson Hill Road,New York,1,0,0,0,42.164424,-77.53104200510207
Buzzard Crest Vineyards,2690 Gray Rd,New York,0,1,0,0,42.550276499999995,-77.0849705
By Grace Farm,9383 West Waneta Lake Rd,New York,1,0,0,0,42.4563265,-77.111931
"Byerly, Daniel",5540 Oscar Lane,North Carolina,0,0,1,0,36.03407615450984,-80.12055264429405
Byers' Organic Dairy LLC,10139 Church Hill Road,Pennsylvania,1,0,0,0,40.2880079,-80.0423964
By-Grace Farm,520 Davis Rd,Maine,1,0,0,0,44.6780635,-70.1113494
BYLER BROTHER's FARMS,308 90th St.,Illinois,0,0,1,0,41.11481050214114,-90.91917319184424
"Byler, Vernon",2293 Mt Zion Church Road,Kentucky,0,1,0,0,37.43052791645261,-88.07633591559271
Byler's Farm,431 Hunts Corners Road,New York,1,0,0,0,42.380913023556296,-76.0848151011887
Byler's Farm,6009 Dean Road,New York,1,0,0,0,42.325322,-79.45015699500873
Byrd Farm Enterprises LLC,6165 River Road West,Virginia,0,1,0,0,37.74243705,-78.12344460563409
C & D Family Farm,6321 East 14th Road,Michigan,1,0,0,0,45.732149,-86.622069
C & E Organic Farm,2412 540th St SW,Iowa,1,0,0,0,41.540774,-91.771046
C. Mcfarlin Family Farms,16808 Avenue 416,California,0,1,0,0,36.54389452586558,-119.19458271595485
C. R. Farms LLC,18041 Threlkeld Lane,Virginia,1,0,0,0,38.54298409749906,-77.92360125625237
C.E. Georgeson JR & Ben Georgeson,2503 S. Sycamore Ave.,California,0,1,0,0,34.033451296957466,-118.35381756861223
C3 Seeds,11025 M-140,Michigan,0,0,1,0,41.91897249980949,-86.27166950193318
Caballo Blanco Vineyards,2401 Robinson Creek Rd.,California,0,1,0,0,39.09111,-123.229619
Cabaniss Dairy - Livestock,414 Sunset Drive,Georgia,1,0,0,0,33.91423229754695,-84.803518
Cable Line Dairy,4525 W 100 S,Indiana,1,0,0,0,40.423249748229146,-85.07554554379186
Cableline Crossing Farm,0900 S 1075 W,Indiana,1,0,0,0,41.62749019191919,-85.63319466666667
Cabrillo College Horticulture Department,6500 Soquel Drive,California,0,1,0,0,36.9886353,-121.9273278
Cactus Lane Farming,9601 West Harrison Street,Arizona,0,1,0,0,33.44368935135135,-112.26587843243243
Cada Family Farms,1754 Road 10,Nebraska,0,0,1,0,41.50342248979592,-96.7322485510204
"Cafe Virtuoso, LLC",1622 National Ave.,California,0,1,0,0,32.6960698,-117.1079065
Cahoon Farms Inc,10951 Lummisville Rd,New York,0,1,0,0,43.23666239010316,-76.87037113672523
Cain Cellars Dba Cain Vineyard And Winery,3800 Langtry Rd.,California,0,1,0,0,38.512575947633394,-122.53296097743552
"Cal Fresco, LLC",6850 Artesia Boulevard,California,0,1,0,0,33.8730312,-118.0776616
Calandri Farms Inc.,43511 70th Street East,California,0,1,0,0,34.67377539658541,-118.00532832161356
Calcreation,2290 Calle Caralene,California,0,1,0,0,33.45691,-117.33969
"Caldbeck, Brian & Claire",5434 Little Hickory Rd.,Kentucky,0,1,0,0,37.67438948011805,-86.95118493996816
Caleb Lambright,52312 330th Street,Minnesota,1,0,0,0,44.471413,-94.3158530420015
Caleb Stoll,368 Thorndike Rd.,Maine,1,0,0,0,44.6093545,-69.3055237
Calera Wine Company Dba Mt. Harlan Vineyards,11300 Cienega Rd.,California,0,1,0,0,36.74040348197112,-121.37152400996887
Calico Ranch,4200 Highway 78,California,0,1,0,0,33.1092073,-116.6739085
Cali-Dad Organic Farms,767 Saint Helen Way,California,0,1,0,0,36.68068214167469,-121.63098823863874
California Concentrate Co./Kimberley Wine Vinegar,18678 N. Hwy. 99,California,0,1,0,0,36.642613,-117.039034
"California Custom Fruits & Flavors, Inc.",15800 Tapia St.,California,1,1,0,0,34.1086903,-117.5057657
California Fruit Exchange,6011 E Pine Street,California,0,1,0,0,38.13408928342246,-121.24287888770054
"California Gourmet, Inc. Dba Pica Trade Co., Inc.",6837 Road 25,California,0,1,0,0,36.9399727,-120.0921105
California Natural Products,1250 E. Lathrop Rd.,California,1,0,1,1,37.8263618,-121.2943025
"California Olive Ranch, Inc.",5945 County Rd 35,California,0,1,0,0,39.61151912205708,-122.26121435709177
California Packaging Centers,1140 South Rockefeller Avenue,California,1,0,0,0,34.05320034433597,-117.55474640926816
"California Transplants, LLC",4100 Stuhr Rd,California,0,1,0,0,37.3289889,-121.1073123
California Valley Land Company Dba Woolf Family Trust No. 1 Dba Woolf Enterprises,18036 Gale Avenue,California,0,1,0,0,33.8708476,-118.2045799
Calixtro Distributing Co.,42 Kipper Street,Arizona,0,1,0,0,31.456193455692954,-110.98070010380088
"Callahan, Jarrett",24149 Highway 47,Virginia,0,0,1,0,36.9855859,-80.4768316
"Calle De Luz, LLC",26100 Calle Cresta,California,0,1,0,0,33.454986,-117.204464
Cal-Rae Farms,129 Dyer Rd.,Maine,1,0,0,0,45.1491283,-69.1028743
Calvert's Gift Farm,16813 Yeoho Road,Maryland,0,1,0,0,39.58507135,-76.73879936844511
Calvin And Doris Kauffman Farm,N1584 Market Rd.,Wisconsin,1,0,0,0,45.9097871,-90.5514056
Calvin E. Raber/Wabash Trails Dairy Farm,4630 W. 700 S.,Indiana,1,0,0,0,41.5395290295858,-85.50739229585798
Calvin Lutz Farms,8576 Chief Rd,Michigan,0,1,0,0,44.36630832710281,-86.10172292523364
Calyx Farm,133 N.Main St.,Maine,0,1,0,0,43.18374465783349,-70.60771158219721
CAM CSM Corp. Dba California Coast Naturals,12477 Calle Real,California,0,1,0,0,34.4407659,-119.754524
Camber's Back Meadow Farms,452 Main St,Maine,0,1,0,0,44.1064158,-70.2111794
Camden Hills Organics,9429 Preston Hill Road,New York,0,1,0,0,43.31502567686949,-75.75509197852395
Cameron Davis,1005 Devil's Racetrack Road,North Carolina,0,0,1,0,35.447802576372155,-78.37536310721157
Cameron's Knoll Organic Acres,1951 Lancaster Pike,Pennsylvania,0,1,0,0,39.785609,-76.18172
Camino de Paz,227 State Road 76,New Mexico,0,1,0,0,41.02307530435145,-76.78968926187662
Camino de Paz,227 State Rd. 76,New Mexico,1,1,0,0,41.02307530435145,-76.78968926187662
Campbell Farms,11521 CR 321,Missouri,0,0,1,0,39.59039123983671,-93.3472207627283
Campisi Ranch,5230 Ave. 328,California,0,1,0,0,36.385433,-119.367995
Campodonico Olive Farm,2570 Soda Bay Road,California,0,1,0,0,39.01497869640346,-122.86998357386054
Canihan Vineyards,1340 Napa Rd.,California,0,1,0,0,38.27520174787528,-122.45161733211435
Canoe Creek Dairy,2954 Middle Sattre Rd,Iowa,1,0,1,0,43.366237,-91.724064
Canyon Bounty Farm,13376 Orchard Ave.,Idaho,0,0,1,0,43.590080935185185,-116.66104860185186
Capay Canyon Ranch,14650 County Road 87,California,0,1,0,0,38.72350667492921,-122.00834267135171
Capay Hills Orchard,24155 County Road 22,California,0,1,0,0,38.69186997688832,-122.0555654453197
Capay Organic,23804 State Highway 16,California,0,1,0,0,38.7012881,-122.0370741
Capay Satsuma Mandarins,7643 Cutting Ave.,California,0,1,0,0,39.79684,-122.07168169695912
Cape Cod Ginger LLC,8 Kendrick Rd.,Massachusetts,0,1,0,0,41.7802195,-70.7412818078084
Cape Cod Organic Farm,3675 Main St. Rte 6A,Massachusetts,0,1,0,0,41.703737,-70.251913
Capistran Seed Co.,19380 270th St SW,Minnesota,0,0,1,0,47.7749103,-96.4596121
"Capital City Fruit, Inc",1850 Colonial Parkway,Iowa,0,1,0,0,41.4912015,-93.6759386
Capital K Farms Inc.,42255 Road 762,Nebraska,0,0,1,0,40.87406788000679,-99.94496906261034
Capitol Distribution Company LLC,16424 Valley View,California,0,0,1,0,33.6544555,-117.8165494
Caprock Enterprises LLC,1301 E 5th,Texas,0,0,1,0,32.7640623,-98.9014517
Capurro Marketing LLC,2250 Highway 1,California,0,1,0,0,38.01357675,-121.9423645
Card Lot,796 Mariaville Rd.,Maine,0,1,0,0,44.633417,-68.4299403
Cardenas Farms,42435 Road 80,California,0,1,0,0,36.3592686,-119.3945291
Carding Brook Farm,4 Carlton Drive,Maine,0,1,0,0,44.3019355,-68.6105979
Cargill Feed & Nutrition,70 Agway Lane,Pennsylvania,0,0,1,0,40.90909137749851,-76.8534049718437
Cargill Incorporated,2182 Rd 5600,Nebraska,0,0,1,0,40.151464,-97.689496
Cargill Incorporated,702 Fair St,Minnesota,0,0,1,0,44.333000965260375,-93.95533243099844
Cargill Incorporated,1545 N. Cable Rd,Ohio,0,0,1,0,40.7609765,-84.146973
Cargill Incorporated,102 W Beers Street,Michigan,0,0,1,0,42.10552406978501,-85.97438687420934
"Cargill, Incorporated",6640 Ship Drive,Indiana,0,0,1,0,41.63822149520453,-87.15562340258846
CARI/Iroquois Farm,10949 SH 37,New York,0,1,0,0,44.816151,-75.302556
"Carillon Green, Inc.",5950 Benjamin Rd.,Florida,0,0,1,0,28.0065827090301,-82.54203207692308
Carl - Willie Shrock Farm,Water Mill Rd.,Missouri,0,0,1,0,36.6088729,-93.292447
Carl Modica Jr.,618 Lichty Farm Hill Road,Pennsylvania,0,0,1,0,39.891314,-79.00331
Carley Farms Inc,7527 Burke Rd,New York,0,0,1,0,42.94730066689786,-76.0044128288045
Carlos Vickers Farm,317 Vickers Farm Road,Georgia,0,1,0,0,31.224915,-83.076778
Carlson Ag,20104 County Rd 29,Minnesota,0,0,1,0,44.35339260198126,-94.57616135854428
"Carlson, Kenneth",6975 County Road 66,North Dakota,0,0,1,0,46.452869,-98.954918
Carlton Farms Dba AMA Hemp,317 Prospect Street,Pennsylvania,0,1,0,0,40.645462802715684,-75.46319959918327
Carlyle Snyder,271 Peckville Road,New York,0,0,1,0,43.099171,-74.8379125
Carol Engelhardt,965 Avocado Crest Road,California,0,1,0,0,33.955831178445905,-117.94495898324966
Carol Wock,301 E Cedar,Illinois,0,0,1,0,40.354862,-91.439943
Carolina Dairy LLC,116 Industrial Park Drive,North Carolina,1,0,0,0,35.51742159095846,-82.96625255719019
"Carolina Ingredients, Inc.",1595 Cedar Line Drive,South Carolina,1,0,0,0,34.947559041210376,-80.9565234426214
Carolyn Gail Chachere,424 Bratton Rd,Arkansas,0,1,0,0,34.90173606122449,-91.96421446938776
"Carpenter Orchard, Inc.",2480 Big Valley Rd.,California,0,1,0,0,38.978372,-122.8418
Carrfour Supportive Housing,2332 SE 23rd Road,Florida,0,1,0,0,25.4509296,-80.4417762
Carrie Redden,15389 630th Avenue,Minnesota,1,0,0,0,43.790437,-92.7898824
Carroll Farms,307 East Holl Road,New York,1,0,0,0,42.574110040583854,-76.24761174153532
"Carrubba, Inc.",70 Research Drive,Connecticut,0,1,0,0,41.07707751262924,-73.51911293226019
Carter & Ann Ahlstedt,52071 857th Road,Nebraska,0,0,1,0,42.248343,-98.09530386027335
Carversville Farm Foundation,6127 Mechanicsville Road,Pennsylvania,0,1,0,0,40.368874272727275,-75.05024313636363
"Casa Rosa Farms, LLC",16530 County Road 63,California,0,1,0,0,34.631298,-117.2023706
Casaca Vineyards,25474 S Butte Road,California,0,1,0,0,39.1559276,-121.7399455
Cascade International Foods Inc,561 SE Oak Street,Oregon,0,1,0,0,45.5190196,-122.9811029
Casey & Melinda Jones,1950 E 400 Rd,Missouri,0,0,1,0,37.834907,-93.821954
Casey Beauclair,146 3rd St S,Minnesota,0,0,1,0,45.05564712244898,-92.80876712244898
Casey Farms,1136 Berry Rd,New York,1,0,0,0,42.82632389091359,-76.05970386654474
Casimer Trybuskiewicz,2245 Clinton St,New York,1,0,0,0,40.6961748,-73.9913268
Casini Vineyard,1350 Pepperwood Place,California,0,1,0,0,34.9676244,-120.4188988
"Castelo Cold Storage, LLC",Keystone Dr.10321,Texas,0,1,0,0,31.901051,-106.426252
"Castonguay Ayrshires, LLC",39 Richmond Hill Rd,Maine,1,0,0,0,44.3929523,-70.2052192
"Castro Farms, LLC",1180 Los Viboras Rd.,California,0,1,0,0,36.93432107906977,-121.35913848372093
Catalan Family Farms,5425 Pacheco Pass Hwy,California,0,1,0,0,37.0322447,-121.3235834
Catania Spagna Corporation Dba Catania Oils,1 and 3 Nemco Way,Massachusetts,0,0,1,0,42.565779,-71.532052
Catherine Hartley,14089 Crazy Corners Road,Minnesota,0,0,1,0,43.64923314290251,-91.37403387880542
"Caudill Seed And Warehouse Co., Inc.",1402 West Main St.,Kentucky,0,0,1,0,38.2581361,-85.77427387424933
Cayuga Fields,1096 Sherwood Rd,New York,0,0,1,0,42.758553500000005,-76.667081
"Cayuga Milk Ingredients, LLC",15 Eagle Drive,New York,1,0,0,0,42.14451470633413,-77.12308142162578
"CDH Enterprises, Inc",1840 Winsett St,Arizona,0,1,0,0,32.21405337275427,-110.94420969411038
CEC,1670 Echota Road,Georgia,0,1,0,0,34.64703183472881,-83.64571188295146
Cecchini & Cecchini,2017 Walnut Blvd.,California,0,1,0,0,37.91723560479158,-122.05380970537044
"Cecil Creek Farm, LLC",73 Democrat Rd.,New Jersey,0,1,0,0,39.83224874912643,-74.9821984346379
Cecil Farms Inc,1113 Liberty Rd,North Carolina,0,0,1,0,35.923296693501875,-79.94547128042798
Cecil Miller,21000 200Th Street,Iowa,1,0,0,0,42.93237669733015,-91.39982820928765
Cedar Grove Farm,6685 Green Road,New York,0,1,0,0,43.187704356969114,-75.59549730888676
Cedar Hollow Farm,51 Reynolds Rd.,Maine,0,1,0,0,44.60964624848531,-69.26117758656198
Cedar Knoll Farm,157 Ucasz Road,New York,1,0,0,0,42.986512000000005,-74.76969529583332
Cedar Lake Farm,4715 Hwy KK,Missouri,1,0,1,0,38.582319,-93.048416
Cedar Lane Farm,18420 Flora Ave,Iowa,0,0,1,0,40.77872524569378,-92.53334556214152
Cedar Ridge Apple Ranch LLC Dba Indigeny Reserve,14679 Summers Lane,California,0,1,0,0,38.01186,-120.3200649
Cedar Ridge Farm,24635 A Ave,Iowa,0,0,1,0,42.0263212,-91.5934882
Cedar Ridge Farm,2199 N Marshall Road,Indiana,1,0,0,0,38.695058,-86.272171
Cedar River Organics LLC,13133 84th Ave SE,Minnesota,0,0,1,0,46.6877628,-94.7225198
Cedar Springs Farm,1771 Liskey Rd,Virginia,1,0,0,0,38.409901,-78.928724
Cedar Valley Farm,356 Liberty Lane,Pennsylvania,1,1,0,0,39.83488151746429,-76.0761391332131
Celia Fernandez Dba CFE Farms Inc.,279 C Maher Rd.,California,0,1,0,0,36.84917749765905,-121.67932446884089
Cenobio Organics,1700 Old Stage Rd.,California,0,1,0,0,36.610464,-121.518115
Centennial Ridge Farms,7704 Burton Highway,Michigan,0,0,1,0,42.4291542,-85.0243703
Center Ridge Farm,31654 Township Road 235,Ohio,1,0,0,0,40.40778731290673,-81.76136719321316
Central Carolina Community College,764 West Street,North Carolina,0,1,0,0,35.7892807,-78.78619800421822
"Central Coast Cooling LLC, El Centro",170 North 1st Street,California,0,1,0,0,35.6563038,-120.37695334172165
CENTRAL INDIANA ORGANICS,5780 S. 200 East,Indiana,0,0,1,0,41.569626802287694,-84.95206967699787
Central Milling Collinston,14400 North Highway 38,Utah,0,1,0,0,37.969145,-113.475697
Central Milling/Keith Giusto Bakery Supply,1120 Holm Rd.,California,1,1,1,0,38.26567138796453,-122.6611359915508
Central PA Produce Co-Op Inc,7067 Kettle Road,Pennsylvania,0,1,0,0,40.6086211,-78.1938033
Central Plains Organic Farmers,349 Arrowhead Rd.,Kansas,0,0,1,0,39.620569979591835,-97.35055246938775
Central Sands Investments,4095 Gray Road,Wisconsin,0,0,1,0,43.223598958008374,-89.31835487223283
"Central States Enterprises, LLC",668 NW 228 St,Florida,0,0,1,0,27.6353769,-82.7208535
"Central Valley Cheese, Inc.",115 S. Kilroy Road,California,1,0,0,0,37.492116857142854,-120.87640271428572
Centre Hall Ranch,3471 Penns Valley Rd.,Pennsylvania,1,0,0,0,40.8563543,-77.5738555
"Century Hills, Inc.",9620 132nd St. E,Minnesota,1,0,0,0,44.7528088,-92.9109344496954
Cephas A Miller,1140 Orange Ave,Iowa,0,1,0,0,42.90876424012382,-93.21227566173378
Cephas Yoder,5423 Kansas Ave,Iowa,1,0,1,0,41.730583,-91.637052
"Cerutti Bros., Inc.",2100 Orestimba Rd,California,0,1,0,0,37.31843858027489,-121.05840651527053
"CF Fresh, LLC",289 Chambers Rd.,Pennsylvania,0,1,0,0,41.06096929145417,-79.95248882684982
"CFC, Inc. D.B.A. Columbus Vegetable Oils",30 E. Oakton Street,Illinois,0,0,1,0,42.02305318074931,-87.9200232958902
"CH Rivas, LLC",5 Avenida Acaponeta,Arizona,0,1,0,0,31.45266608306601,-110.97413389501914
Chacewater Wine Co. & Olive Mill Dba Highway 20,5625 Gaddy Lane,California,0,1,0,0,38.982122,-122.839264
Chad Mcculler,10570 Fountain School Road,Maryland,1,0,0,0,39.52351,-77.188603
Chad Sime,16451 Freeman Road,Wisconsin,0,0,1,0,43.33871642329988,-90.90169885104204
Chaffin Orchards Dba Chaffin Family Orchards,606 Coal Canyon Rd.,California,0,1,0,0,39.601736236134684,-121.59719163464997
Chaffin Organics,3239 West Saint Charles Rd,Michigan,0,1,0,0,43.30626713275963,-84.67167542806011
Chaga Inc. Dba Noniland,4639 Waiakalua Street,Hawaii,0,1,0,0,22.199180447428418,-159.3791995189766
Chagrin Valley Soap & Salve,29425 Aurora Rd.,Ohio,1,0,0,0,41.3991077,-81.47149489565219
Champlain Valley Specialty Of NY,8033 state route 104,New York,0,1,0,0,43.2255186,-77.3584482
Chance Creek Vineyards,9154 Colony Dr.,California,0,1,0,0,39.276081089856596,-123.18425368805092
Channah Farms,3208 Pike Farm Road,North Carolina,0,0,1,0,35.8245979,-79.5477404
Chappellet Vineyard,1581 Sage Canyon Rd.,California,0,1,0,0,38.48815643974271,-122.34994546090051
Charan Springs Farm,4045 Curti Creek Road,California,0,1,0,0,35.5854316,-121.000238797793
"Charles & Alice, Inc.",2870 Yellow Goose Rd,Pennsylvania,0,1,0,0,40.08657805543368,-76.38677313394638
Charles Fisher - Fisher Family Trust Dba Fisher Vineyards,19361 North Atkins Road,California,0,1,0,0,38.16210477298421,-121.0965206015325
Charles Huber Farm,3164 160th St.,Iowa,0,0,1,0,42.558764571428576,-94.48948885714286
Charles L Davis,13958 Hwy 15,Missouri,0,0,1,0,38.4810191,-91.3182018
Charles Maxon,14925 East Barre Rd,New York,0,0,1,0,43.1873195,-78.155834
Charlie And Sara Kollasch,5777 400th St.,Iowa,0,0,1,0,42.6455529,-91.2508083
Charlie Smith Vineyard LLC Dba Charlie Smith Vineyard,3010 Nelligan Rd.,California,0,1,0,0,38.4152003877551,-122.51125710204082
Charlie's Redhouse Farm,683 River St.,Massachusetts,0,1,0,0,42.11873162373266,-70.80746353730673
Charmar Vineyards,19465 Arnold Dr.,California,0,1,0,0,34.5435258,-118.0825928
Charvin Organic Farm,170 Saner Road,Pennsylvania,1,0,1,0,40.5414577,-77.281818
Chase Farm,1550 Kiler Canyon Road,California,0,1,0,0,35.60549914907552,-120.72030875154081
Chase Farm,627 Salem Rd.,Maine,1,0,0,0,44.930644,-70.1993677
Chase Stream Farm,527 Jackson Road,Maine,0,1,0,0,44.1866176,-69.3352127
Chase Vineyards,3070 Rd. B,California,0,1,0,0,39.24905255991556,-123.17658108628483
"Chaseholm Farm, LLC",115 Chase Road,New York,1,0,0,0,40.797486500000005,-73.68752
Chase's Organic Dairy Farm,84 Creasey Ridge Road,Maine,1,0,0,0,46.6975015,-68.1024992
Chautauqua Hilltop Organic,7253 Bowers Rd,New York,1,0,0,0,42.3189379765492,-79.32405864038098
Chavez & Leeds Vineyards,1581 St. Helena Hwy,California,0,1,0,0,38.3288287,-122.3157253
Chavez Farms,17906 County Road 85C,California,0,1,0,0,38.67800521319731,-122.03437804359639
Chays Farms,4927 Fairview Rd,California,0,1,0,0,34.1116775,-117.4228597
Checkerberry Farm,530 Wellington Rd.,Maine,0,1,0,0,45.0987514,-69.4956802
Cheerful Echoes Farm,12119 Coopers Lane,Maryland,0,0,1,0,39.3292536,-76.1326791
"Chef V, LLC",1300 E Mission Rd. #A,California,1,0,0,0,33.1366412,-117.1294359
Cheffo Farms LLC,114 Ostrander Road,New York,0,1,0,0,42.06999835996474,-75.59280533066764
Chef's Way Organic Farms,5788 Cole Rd,Michigan,0,1,1,0,43.33968269346734,-83.94422391959799
